{"dashboardManifest": {"generatedAt": "2026-06-11T12:11:40"}, "roadNetworkIntelligence": {"generatedAt": "2026-06-11T12:11:40", "regionIntelligence": [{"region": "Central", "weightedAverageVci": 51.7, "projects": 64, "stressScore": 48.3}, {"region": "Eastern", "weightedAverageVci": 38.8, "projects": 60, "stressScore": 61.2}, {"region": "North Eastern", "weightedAverageVci": 12.7, "projects": 18, "stressScore": 87.3}, {"region": "Northern", "weightedAverageVci": 17.6, "projects": 33, "stressScore": 82.4}, {"region": "Southern", "weightedAverageVci": 43.4, "projects": 46, "stressScore": 56.6}, {"region": "Western", "weightedAverageVci": 52.8, "projects": 18, "stressScore": 47.2}]}, "roadExcelAnalytics": {"bridges": {"top_corridors": [{"principal_road_name": "Pakele-Pabbo", "principal_link_id": "", "bridge_count": 8}, {"principal_road_name": "Manibe-Maracha-Koboko", "principal_link_id": "A008", "bridge_count": 7}, {"principal_road_name": "Atiak-Moyo", "principal_link_id": "B250", "bridge_count": 7}, {"principal_road_name": "Yumbe-Manibe", "principal_link_id": "B250", "bridge_count": 7}, {"principal_road_name": "Kotido-Apaan-Kabong", "principal_link_id": "B301", "bridge_count": 7}, {"principal_road_name": "Muyembe-Namalu", "principal_link_id": "B300", "bridge_count": 6}, {"principal_road_name": "Katunguru-Ishasha", "principal_link_id": "C414", "bridge_count": 6}, {"principal_road_name": "Panyimur-PaidhaViaErusi-Goli", "principal_link_id": "", "bridge_count": 6}, {"principal_road_name": "Nebbi-Eruba", "principal_link_id": "A008", "bridge_count": 5}, {"principal_road_name": "Bukuku-Rubona", "principal_link_id": "", "bridge_count": 5}, {"principal_road_name": "Biliafe-Otrevu", "principal_link_id": "", "bridge_count": 4}]}}, "structureDigitalTwin": {"features": [{"geometry": {"coordinates": [31.6559200286866, 3.26724004745482]}, "properties": {"assetType": "bridge", "title": "ITIRIKWA", "structureId": "B760"}}, {"geometry": {"coordinates": [31.087560653686523, 3.12692999839794]}, "properties": {"assetType": "bridge", "title": "ISA", "structureId": "B732"}}, {"geometry": {"coordinates": [31.08559036254883, 3.144170045852661]}, "properties": {"assetType": "bridge", "title": "NAARA", "structureId": "B733"}}, {"geometry": {"coordinates": [31.06719970703125, 3.050179958343562]}, "properties": {"assetType": "bridge", "title": "OSU", "structureId": "B349"}}, {"geometry": {"coordinates": [34.04174041748047, 1.016870021820068]}, "properties": {"assetType": "bridge", "title": "NAHAMYABRIDGE", "structureId": "B362"}}, {"geometry": {"coordinates": [32.78622055053711, 2.687289953231868]}, "properties": {"assetType": "bridge", "title": "AWERE", "structureId": "B189"}}, {"geometry": {"coordinates": [32.339450836181754, 3.228940010070914]}, "properties": {"assetType": "bridge", "title": "AGAGURA", "structureId": "B323"}}, {"geometry": {"coordinates": [31.2095737457276, 1.569412946701163]}, "properties": {"assetType": "bridge", "title": "Wambabya", "structureId": "B274"}}, {"geometry": {"coordinates": [29.7407398, 0.09594]}, "properties": {"assetType": "bridge", "title": "KABIRAbridge", "structureId": "B253"}}, {"geometry": {"coordinates": [33.05551147460943, 3.612577915191708]}, "properties": {"assetType": "bridge", "title": "OKWORA", "structureId": "B326"}}, {"geometry": {"coordinates": [31.563539505004886, 3.370255947113151]}, "properties": {"assetType": "bridge", "title": "OMPOSO", "structureId": "B333"}}, {"geometry": {"coordinates": [34.5685615539552, 2.034909963607902]}, "properties": {"assetType": "bridge", "title": "LOJORO", "structureId": "B215"}}, {"geometry": {"coordinates": [34.22352981567394, 2.489130020141658]}, "properties": {"assetType": "bridge", "title": "LONENE", "structureId": "B879"}}, {"geometry": {"coordinates": [30.2193604, -0.99056]}, "properties": {"assetType": "bridge", "title": "KatengureBridge", "structureId": "B079"}}, {"geometry": {"coordinates": [34.01461029052735, 0.711359977722282]}, "properties": {"assetType": "bridge", "title": "KORUBUDEBRIDGE", "structureId": "B352"}}, {"geometry": {"coordinates": [34.11037826538097, 0.867760002613124]}, "properties": {"assetType": "bridge", "title": "KaminimaBridge", "structureId": "B354"}}, {"geometry": {"coordinates": [34.11140060424805, 0.870580017566738]}, "properties": {"assetType": "bridge", "title": "Kamunima", "structureId": "B355"}}, {"geometry": {"coordinates": [34.014541625976676, 0.710789978504294]}, "properties": {"assetType": "bridge", "title": "ADEYOBRIDGE", "structureId": "B882"}}, {"geometry": {"coordinates": [32.04188919, 1.542610049]}, "properties": {"assetType": "bridge", "title": "KafuBridge", "structureId": "B023"}}, {"geometry": {"coordinates": [32.949840550101385, 2.737570047319878]}, "properties": {"assetType": "bridge", "title": "AtupBridge", "structureId": "B149"}}, {"geometry": {"coordinates": [32.96244811978494, 2.821429968318454]}, "properties": {"assetType": "bridge", "title": "AgoraBridge", "structureId": "B150"}}, {"geometry": {"coordinates": [32.96448898008243, 2.839829922013337]}, "properties": {"assetType": "bridge", "title": "AgagoBridge", "structureId": "B151"}}, {"geometry": {"coordinates": [32.91411972034888, 3.146120071184384]}, "properties": {"assetType": "bridge", "title": "AcholiburBridge", "structureId": "B152"}}, {"geometry": {"coordinates": [33.03469086029503, 3.437319993922642]}, "properties": {"assetType": "bridge", "title": "Agwapoke", "structureId": "B157"}}, {"geometry": {"coordinates": [34.314300539738156, 1.382509947076471]}, "properties": {"assetType": "bridge", "title": "SIPI", "structureId": "B158"}}, {"geometry": {"coordinates": [34.34492873986949, 1.406741977260481]}, "properties": {"assetType": "bridge", "title": "Cheptui", "structureId": "B159"}}, {"geometry": {"coordinates": [34.34965133983752, 1.41479003363321]}, "properties": {"assetType": "bridge", "title": "CHESEBERE", "structureId": "B160"}}, {"geometry": {"coordinates": [34.404159550323016, 1.4708499910343]}, "properties": {"assetType": "bridge", "title": "KAPUTOKOI", "structureId": "B161"}}, {"geometry": {"coordinates": [34.44422913007037, 1.500190020253285]}, "properties": {"assetType": "bridge", "title": "ATARIBRIDGE", "structureId": "B162"}}, {"geometry": {"coordinates": [34.49401855011604, 1.538949965868255]}, "properties": {"assetType": "bridge", "title": "Seretyo", "structureId": "B163"}}, {"geometry": {"coordinates": [34.543621059564316, 1.59842002386506]}, "properties": {"assetType": "bridge", "title": "OKILIM", "structureId": "B164"}}, {"geometry": {"coordinates": [31.14755958165348, 2.895422086404872]}, "properties": {"assetType": "bridge", "title": "OLEMIKA", "structureId": "B212"}}, {"geometry": {"coordinates": [30.4138203, 0.10871]}, "properties": {"assetType": "bridge", "title": "MPANGABRIDGE", "structureId": "B268"}}, {"geometry": {"coordinates": [34.94792937973716, 1.7076599596395]}, "properties": {"assetType": "bridge", "title": "KANYANGAREN", "structureId": "B382"}}, {"geometry": {"coordinates": [30.65572735524316, -1.042418444066472]}, "properties": {"assetType": "bridge", "title": "MurongoBridge", "structureId": "B541"}}, {"geometry": {"coordinates": [30.88776321480239, 2.919506243411107]}, "properties": {"assetType": "bridge", "title": "ODRUA", "structureId": "B741"}}, {"geometry": {"coordinates": [32.563376848639294, 2.204653998950747]}, "properties": {"assetType": "bridge", "title": "OkoleBridge3", "structureId": "B752"}}, {"geometry": {"coordinates": [32.54252582399727, 0.345210509324214]}, "properties": {"assetType": "bridge", "title": null, "structureId": ""}}, {"geometry": {"coordinates": [32.51462174407085, 0.310534120885178]}, "properties": {"assetType": "bridge", "title": null, "structureId": ""}}, {"geometry": {"coordinates": [32.52689898604354, 0.331892997856043]}, "properties": {"assetType": "bridge", "title": null, "structureId": ""}}, {"geometry": {"coordinates": [31.564779806716118, 2.284896848218903]}, "properties": {"assetType": "bridge", "title": null, "structureId": ""}}, {"geometry": {"coordinates": [32.1229694183916, 1.411523021386693]}, "properties": {"assetType": "bridge", "title": null, "structureId": ""}}, {"geometry": {"coordinates": [31.842531413323595, 1.371939182021565]}, "properties": {"assetType": "bridge", "title": null, "structureId": ""}}, {"geometry": {"coordinates": [32.52952273771985, 0.208797879614725]}, "properties": {"assetType": "bridge", "title": null, "structureId": ""}}, {"geometry": {"coordinates": [32.52825997107642, 0.205360974577969]}, "properties": {"assetType": "bridge", "title": null, "structureId": ""}}, {"geometry": {"coordinates": [32.52619428449646, 0.197576474883972]}, "properties": {"assetType": "bridge", "title": null, "structureId": ""}}, {"geometry": {"coordinates": [32.51733305949336, 0.176214289488075]}, "properties": {"assetType": "bridge", "title": null, "structureId": ""}}, {"geometry": {"coordinates": [32.51178900779325, 0.105055159206985]}, "properties": {"assetType": "bridge", "title": null, "structureId": ""}}, {"geometry": {"coordinates": [32.51234423704036, 0.105812023057124]}, "properties": {"assetType": "bridge", "title": null, "structureId": ""}}, {"geometry": {"coordinates": [32.5126380154101, 0.10638387167296]}, "properties": {"assetType": "bridge", "title": null, "structureId": ""}}, {"geometry": {"coordinates": [33.89086913989894, 0.535430014183874]}, "properties": {"assetType": "bridge", "title": "KibimbaBridge", "structureId": "B001"}}, {"geometry": {"coordinates": [34.26350783961516, 0.63851201491758]}, "properties": {"assetType": "bridge", "title": "Malaba", "structureId": "B002"}}, {"geometry": {"coordinates": [32.00738907004961, -0.034230001013668]}, "properties": {"assetType": "bridge", "title": "KatongaBridge", "structureId": "B004"}}, {"geometry": {"coordinates": [30.643739699627474, -0.618210018277694]}, "properties": {"assetType": "bridge", "title": "RwiziBridge", "structureId": "B005"}}, {"geometry": {"coordinates": [30.223150250084014, -0.927089989211595]}, "properties": {"assetType": "bridge", "title": "KamiraBridge", "structureId": "B006"}}, {"geometry": {"coordinates": [30.207000730199578, -0.958400011251456]}, "properties": {"assetType": "bridge", "title": "RubangaBridge", "structureId": "B007"}}, {"geometry": {"coordinates": [30.18483924963169, -1.037829995058189]}, "properties": {"assetType": "bridge", "title": "KatinadaBridge", "structureId": "B008"}}, {"geometry": {"coordinates": [30.028640750070625, -1.262410045387242]}, "properties": {"assetType": "bridge", "title": "Kyanamira", "structureId": "B009"}}, {"geometry": {"coordinates": [30.393499369800114, 0.643339992047061]}, "properties": {"assetType": "bridge", "title": "Mpanga", "structureId": "B013"}}, {"geometry": {"coordinates": [30.296737670407197, 0.660422027054949]}, "properties": {"assetType": "bridge", "title": "Mpanga", "structureId": "B014"}}, {"geometry": {"coordinates": [30.278160099708884, 0.656930028797831]}, "properties": {"assetType": "bridge", "title": "Mpanga", "structureId": "B015"}}, {"geometry": {"coordinates": [30.21141434019967, 0.373338014437877]}, "properties": {"assetType": "bridge", "title": "Rwimi", "structureId": "B016"}}, {"geometry": {"coordinates": [30.278085709587852, 0.349994986579418]}, "properties": {"assetType": "bridge", "title": "Nsonja", "structureId": "B017"}}, {"geometry": {"coordinates": [30.121049880047963, 0.261319994622113]}, "properties": {"assetType": "bridge", "title": "MubukuBridge", "structureId": "B018"}}, {"geometry": {"coordinates": [30.116840360394352, 0.252009987970609]}, "properties": {"assetType": "bridge", "title": "MUBUKU", "structureId": "B019"}}, {"geometry": {"coordinates": [30.105030060389026, -0.194470002588503]}, "properties": {"assetType": "bridge", "title": "NYAMWAMBABRIDGE", "structureId": "B020"}}, {"geometry": {"coordinates": [30.086349490336772, 0.173500000724516]}, "properties": {"assetType": "bridge", "title": "Kaseiga", "structureId": "B021"}}, {"geometry": {"coordinates": [29.72010994002176, 0.041170001094713]}, "properties": {"assetType": "bridge", "title": "MpondweBridge", "structureId": "B022"}}, {"geometry": {"coordinates": [32.020740510366295, 0.100760996322947]}, "properties": {"assetType": "bridge", "title": "Titi", "structureId": "B024"}}, {"geometry": {"coordinates": [32.23983001973966, 2.242510080076159]}, "properties": {"assetType": "bridge", "title": "KARUMA", "structureId": "B025"}}, {"geometry": {"coordinates": [34.170040130247855, 0.827499986035548]}, "properties": {"assetType": "bridge", "title": "MAGODES", "structureId": "B026"}}, {"geometry": {"coordinates": [34.17250823956368, 1.10871005062836]}, "properties": {"assetType": "bridge", "title": "Namatala", "structureId": "B028"}}, {"geometry": {"coordinates": [34.15736007970395, 1.164720057884438]}, "properties": {"assetType": "bridge", "title": "FIKASALAAMA", "structureId": "B029"}}, {"geometry": {"coordinates": [33.73751067957426, 1.667050004254349]}, "properties": {"assetType": "bridge", "title": "AWOJA", "structureId": "B030"}}, {"geometry": {"coordinates": [32.34199905031596, 2.2271299355981]}, "properties": {"assetType": "bridge", "title": "Tochi-Kamdini", "structureId": "B031"}}, {"geometry": {"coordinates": [31.50799942023713, 2.458359957146341]}, "properties": {"assetType": "bridge", "title": "ALBERTNILE", "structureId": "B032"}}, {"geometry": {"coordinates": [31.17251015032321, 2.482830047768516]}, "properties": {"assetType": "bridge", "title": "ACHWERA", "structureId": "B033"}}, {"geometry": {"coordinates": [31.141559599895686, 2.490799903592744]}, "properties": {"assetType": "bridge", "title": "AKABA", "structureId": "B034"}}, {"geometry": {"coordinates": [31.12817955034603, 2.49500989898769]}, "properties": {"assetType": "bridge", "title": "NYARWODHO", "structureId": "B035"}}, {"geometry": {"coordinates": [31.089620589718493, 2.513710022099871]}, "properties": {"assetType": "bridge", "title": "NAMTHIN", "structureId": "B036"}}, {"geometry": {"coordinates": [31.140420909797232, 2.656199931781487]}, "properties": {"assetType": "bridge", "title": "ORA", "structureId": "B037"}}, {"geometry": {"coordinates": [30.995140080050707, 2.829790114622142]}, "properties": {"assetType": "bridge", "title": "AGUYI", "structureId": "B038"}}, {"geometry": {"coordinates": [30.98414040015939, 2.86768007317687]}, "properties": {"assetType": "bridge", "title": "OZUVA", "structureId": "B039"}}, {"geometry": {"coordinates": [30.980869289785975, 2.879970074259575]}, "properties": {"assetType": "bridge", "title": "WIKI", "structureId": "B040"}}, {"geometry": {"coordinates": [33.73785018983443, 0.966279983634365]}, "properties": {"assetType": "bridge", "title": "MPOLOGOMA", "structureId": "B042"}}, {"geometry": {"coordinates": [30.706039430375483, -0.084399997961498]}, "properties": {"assetType": "bridge", "title": "Rushango-Bridge", "structureId": "B043"}}, {"geometry": {"coordinates": [30.461650849706988, 0.100760996322947]}, "properties": {"assetType": "bridge", "title": "Mpanga-Bridge", "structureId": "B044"}}, {"geometry": {"coordinates": [30.04865074023951, -0.125060006913714]}, "properties": {"assetType": "bridge", "title": "KatunguruBridge", "structureId": "B047"}}, {"geometry": {"coordinates": [30.729619979978168, 0.871019006322115]}, "properties": {"assetType": "bridge", "title": "Muziza", "structureId": "B048"}}, {"geometry": {"coordinates": [30.994749070113528, 1.129570007150164]}, "properties": {"assetType": "bridge", "title": "Nkusi", "structureId": "B049"}}, {"geometry": {"coordinates": [34.19990158009392, 1.15298998370082]}, "properties": {"assetType": "bridge", "title": "RWERE", "structureId": "B050"}}, {"geometry": {"coordinates": [34.257061000065164, 1.236289977800311]}, "properties": {"assetType": "bridge", "title": "Sironko", "structureId": "B051"}}, {"geometry": {"coordinates": [34.26726912996645, 1.240309953641485]}, "properties": {"assetType": "bridge", "title": "Nalugugu", "structureId": "B052"}}, {"geometry": {"coordinates": [34.287269590019605, 1.298609972072597]}, "properties": {"assetType": "bridge", "title": "SIMU", "structureId": "B053"}}, {"geometry": {"coordinates": [34.29666138011862, 1.334750055870416]}, "properties": {"assetType": "bridge", "title": "YEMBE", "structureId": "B054"}}, {"geometry": {"coordinates": [34.48246001981414, 1.40707004094969]}, "properties": {"assetType": "bridge", "title": "Atari", "structureId": "B055"}}, {"geometry": {"coordinates": [34.50796890024458, 1.406870008344242]}, "properties": {"assetType": "bridge", "title": "NGENGEBRIDGE", "structureId": "B056"}}, {"geometry": {"coordinates": [34.515460969648075, 1.414620041981379]}, "properties": {"assetType": "bridge", "title": "Emjong", "structureId": "B057"}}, {"geometry": {"coordinates": [33.921436310237596, 1.414940953362361]}, "properties": {"assetType": "bridge", "title": "Kanyago2", "structureId": "B058"}}, {"geometry": {"coordinates": [33.872631069568286, 1.267560005190149]}, "properties": {"assetType": "bridge", "title": "Ladot", "structureId": "B059"}}, {"geometry": {"coordinates": [33.872718810125036, 1.26841998099735]}, "properties": {"assetType": "bridge", "title": "KANYAGO", "structureId": "B060"}}, {"geometry": {"coordinates": [31.34548950014039, -0.779250026167745]}, "properties": {"assetType": "bridge", "title": "Kibale", "structureId": "B062"}}, {"geometry": {"coordinates": [30.050279620208357, -0.831539988679481]}, "properties": {"assetType": "bridge", "title": "KahengeBridge", "structureId": "B067"}}, {"geometry": {"coordinates": [30.01148987016143, -0.906019986133401]}, "properties": {"assetType": "bridge", "title": "MineraBridge01", "structureId": "B068"}}, {"geometry": {"coordinates": [30.011440279745155, -0.905799984981286]}, "properties": {"assetType": "bridge", "title": "Minera02", "structureId": "B069"}}, {"geometry": {"coordinates": [29.870700840171704, -0.313100009857521]}, "properties": {"assetType": "bridge", "title": "NyamwiruBridge", "structureId": "B070"}}, {"geometry": {"coordinates": [29.875909809690032, -0.383579999117614]}, "properties": {"assetType": "bridge", "title": "Rwempunu", "structureId": "B071"}}, {"geometry": {"coordinates": [29.867780690226713, -0.423099995068696]}, "properties": {"assetType": "bridge", "title": "KaiziBridge", "structureId": "B072"}}, {"geometry": {"coordinates": [29.80150031998386, -0.458310008100341]}, "properties": {"assetType": "bridge", "title": "NCHWERA", "structureId": "B073"}}, {"geometry": {"coordinates": [29.723680500354874, -0.574890017959888]}, "properties": {"assetType": "bridge", "title": "NtungweBridge", "structureId": "B074"}}, {"geometry": {"coordinates": [29.628139500237808, -0.727419971554411]}, "properties": {"assetType": "bridge", "title": "IshashaBridge", "structureId": "B075"}}, {"geometry": {"coordinates": [30.460269929913412, -0.434520006393143]}, "properties": {"assetType": "bridge", "title": "NyakambuBrigde", "structureId": "B076"}}, {"geometry": {"coordinates": [30.42457008044488, -0.374500005770585]}, "properties": {"assetType": "bridge", "title": "KAMIIRABRIDGE", "structureId": "B077"}}, {"geometry": {"coordinates": [30.458740229877776, -1.051890015711592]}, "properties": {"assetType": "bridge", "title": "Mirama01", "structureId": "B078"}}, {"geometry": {"coordinates": [30.219360349600493, -0.990559995147635]}, "properties": {"assetType": "bridge", "title": "KatengureBridge", "structureId": "B079"}}, {"geometry": {"coordinates": [30.077209469941128, 0.33364999275301]}, "properties": {"assetType": "bridge", "title": "Mubukubridge", "structureId": "B080"}}, {"geometry": {"coordinates": [30.012689590052616, 0.197899997287095]}, "properties": {"assetType": "bridge", "title": "KILEMBEBRIDGE", "structureId": "B081"}}, {"geometry": {"coordinates": [29.857030869878773, 0.046089998654566]}, "properties": {"assetType": "bridge", "title": "KanyampalaUpper", "structureId": "B082"}}, {"geometry": {"coordinates": [29.84313965017475, -0.123450003714652]}, "properties": {"assetType": "bridge", "title": "NyamugasaniBridge", "structureId": "B085"}}, {"geometry": {"coordinates": [30.363355639850965, 0.934983015253977]}, "properties": {"assetType": "bridge", "title": "Wassa", "structureId": "B087"}}, {"geometry": {"coordinates": [30.493410110088575, 0.882445990989766]}, "properties": {"assetType": "bridge", "title": "Sogoha", "structureId": "B088"}}, {"geometry": {"coordinates": [31.476020809812557, 1.992670059175964]}, "properties": {"assetType": "bridge", "title": "Waiga", "structureId": "B089"}}, {"geometry": {"coordinates": [31.716600419873544, 2.059370041394345]}, "properties": {"assetType": "bridge", "title": "Waiga", "structureId": "B090"}}, {"geometry": {"coordinates": [31.71622086010467, 2.097150086607257]}, "properties": {"assetType": "bridge", "title": "WaringoBridge", "structureId": "B091"}}, {"geometry": {"coordinates": [31.7062492402103, 2.148619889896054]}, "properties": {"assetType": "bridge", "title": "ZuleyaBridge", "structureId": "B092"}}, {"geometry": {"coordinates": [31.697160720390972, 2.178519963825294]}, "properties": {"assetType": "bridge", "title": "SambiyaBridge", "structureId": "B093"}}, {"geometry": {"coordinates": [34.158821110206134, 0.702970027744641]}, "properties": {"assetType": "bridge", "title": "Aturukuru", "structureId": "B094"}}, {"geometry": {"coordinates": [34.11854935027236, 0.722140014250328]}, "properties": {"assetType": "bridge", "title": "PAKAMU", "structureId": "B095"}}, {"geometry": {"coordinates": [34.042121889813416, 0.760429977761305]}, "properties": {"assetType": "bridge", "title": "mahanga", "structureId": "B096"}}, {"geometry": {"coordinates": [33.9961395302152, 0.93141001506018]}, "properties": {"assetType": "bridge", "title": "Nakulumutu", "structureId": "B097"}}, {"geometry": {"coordinates": [33.995010380124995, 0.930549978998386]}, "properties": {"assetType": "bridge", "title": "NKOLA", "structureId": "B098"}}, {"geometry": {"coordinates": [33.93542099018657, 0.854520023380417]}, "properties": {"assetType": "bridge", "title": "Nakwazi", "structureId": "B099"}}, {"geometry": {"coordinates": [33.78984833043614, 0.827139973930684]}, "properties": {"assetType": "bridge", "title": "BUDUMBA", "structureId": "B100"}}, {"geometry": {"coordinates": [34.318431849850015, 1.190690041412324]}, "properties": {"assetType": "bridge", "title": "MIWU", "structureId": "B101"}}, {"geometry": {"coordinates": [34.322879789670594, 1.185809970154025]}, "properties": {"assetType": "bridge", "title": "Sironko", "structureId": "B102"}}, {"geometry": {"coordinates": [34.343921660156525, 1.165009975030386]}, "properties": {"assetType": "bridge", "title": "KADO", "structureId": "B103"}}, {"geometry": {"coordinates": [34.299980159956476, 1.16023004058394]}, "properties": {"assetType": "bridge", "title": "SONOLI", "structureId": "B104"}}, {"geometry": {"coordinates": [34.18692017032964, 1.077849983689816]}, "properties": {"assetType": "bridge", "title": "NAMATSU", "structureId": "B105"}}, {"geometry": {"coordinates": [34.24123001015687, 1.060570001604333]}, "properties": {"assetType": "bridge", "title": "KIGEZI", "structureId": "B106"}}, {"geometry": {"coordinates": [34.374649050113646, 0.811800003067731]}, "properties": {"assetType": "bridge", "title": "Namikhoma", "structureId": "B107"}}, {"geometry": {"coordinates": [34.285881040377774, 0.957120000987288]}, "properties": {"assetType": "bridge", "title": "Pasa", "structureId": "B108"}}, {"geometry": {"coordinates": [34.33169936993005, 0.997569977772287]}, "properties": {"assetType": "bridge", "title": "TSUTSU", "structureId": "B109"}}, {"geometry": {"coordinates": [34.3695793199297, 1.008159994887876]}, "properties": {"assetType": "bridge", "title": "Manafa", "structureId": "B110"}}, {"geometry": {"coordinates": [34.36164092958529, 1.003715038118571]}, "properties": {"assetType": "bridge", "title": "Manafwa", "structureId": "B111"}}, {"geometry": {"coordinates": [34.280391690124475, 0.940609992357281]}, "properties": {"assetType": "bridge", "title": "MANAFA", "structureId": "B112"}}, {"geometry": {"coordinates": [34.34410094989897, 0.814509987745794]}, "properties": {"assetType": "bridge", "title": "NAMUNYIRI", "structureId": "B113"}}, {"geometry": {"coordinates": [34.32883071966205, 1.30798995497247]}, "properties": {"assetType": "bridge", "title": "MBIGI", "structureId": "B114"}}, {"geometry": {"coordinates": [33.69971085017562, 1.468549966807587]}, "properties": {"assetType": "bridge", "title": "AGU", "structureId": "B115"}}, {"geometry": {"coordinates": [33.65433883976567, 1.453330040149297]}, "properties": {"assetType": "bridge", "title": "ABUKET", "structureId": "B116"}}, {"geometry": {"coordinates": [32.33289718995343, 2.625078916658709]}, "properties": {"assetType": "bridge", "title": "Tochi", "structureId": "B117"}}, {"geometry": {"coordinates": [32.07216644022907, 3.569870948885239]}, "properties": {"assetType": "bridge", "title": "Unyama", "structureId": "B118"}}, {"geometry": {"coordinates": [30.905300139589826, 3.089979887062213]}, "properties": {"assetType": "bridge", "title": "ENYAU", "structureId": "B119"}}, {"geometry": {"coordinates": [30.905460360107607, 3.152090073098464]}, "properties": {"assetType": "bridge", "title": "ENVE", "structureId": "B120"}}, {"geometry": {"coordinates": [30.9340801196019, 3.188790082896048]}, "properties": {"assetType": "bridge", "title": "OLUFFE", "structureId": "B121"}}, {"geometry": {"coordinates": [30.9430408502551, 3.25487995064924]}, "properties": {"assetType": "bridge", "title": "AYII", "structureId": "B122"}}, {"geometry": {"coordinates": [30.948419570406884, 3.326159954318484]}, "properties": {"assetType": "bridge", "title": "YOO", "structureId": "B123"}}, {"geometry": {"coordinates": [30.953529359992046, 3.335649966572759]}, "properties": {"assetType": "bridge", "title": "ORU", "structureId": "B124"}}, {"geometry": {"coordinates": [30.956729889772646, 3.396800040889217]}, "properties": {"assetType": "bridge", "title": "APA", "structureId": "B125"}}, {"geometry": {"coordinates": [30.96040916015465, 3.442980050788777]}, "properties": {"assetType": "bridge", "title": "KOCHI", "structureId": "B126"}}, {"geometry": {"coordinates": [32.041099549904345, 3.348459959259742]}, "properties": {"assetType": "bridge", "title": "AYUGI", "structureId": "B127"}}, {"geometry": {"coordinates": [32.016578670069634, 3.357549906303178]}, "properties": {"assetType": "bridge", "title": "Eyiagwea", "structureId": "B128"}}, {"geometry": {"coordinates": [31.993669510239783, 3.377670049932931]}, "properties": {"assetType": "bridge", "title": "ERIA", "structureId": "B129"}}, {"geometry": {"coordinates": [31.79059029040963, 3.390005112446032]}, "properties": {"assetType": "bridge", "title": "Surumu", "structureId": "B130"}}, {"geometry": {"coordinates": [31.814569469905166, 3.604259968123074]}, "properties": {"assetType": "bridge", "title": "Cala", "structureId": "B131"}}, {"geometry": {"coordinates": [31.789390559726602, 3.640820026323182]}, "properties": {"assetType": "bridge", "title": "Amua", "structureId": "B132"}}, {"geometry": {"coordinates": [31.744409560153148, 3.645720004974293]}, "properties": {"assetType": "bridge", "title": "EbikwaBridge", "structureId": "B133"}}, {"geometry": {"coordinates": [31.535219189813805, 3.609110117138243]}, "properties": {"assetType": "bridge", "title": "YII", "structureId": "B134"}}, {"geometry": {"coordinates": [31.481870649710743, 3.57543301562123]}, "properties": {"assetType": "bridge", "title": "NYAWA", "structureId": "B135"}}, {"geometry": {"coordinates": [31.43885039972622, 3.559600114653619]}, "properties": {"assetType": "bridge", "title": "KOCHI", "structureId": "B136"}}, {"geometry": {"coordinates": [31.277500150011974, 3.381390094677158]}, "properties": {"assetType": "bridge", "title": "JURE", "structureId": "B137"}}, {"geometry": {"coordinates": [31.26222037976675, 3.362220048816254]}, "properties": {"assetType": "bridge", "title": "DACHA", "structureId": "B138"}}, {"geometry": {"coordinates": [31.20379066021087, 3.337039947935295]}, "properties": {"assetType": "bridge", "title": "ORE", "structureId": "B139"}}, {"geometry": {"coordinates": [31.16379929000527, 3.287940024612511]}, "properties": {"assetType": "bridge", "title": "Ozoro", "structureId": "B140"}}, {"geometry": {"coordinates": [31.150459289964317, 3.278280019807141]}, "properties": {"assetType": "bridge", "title": "Nvetre", "structureId": "B141"}}, {"geometry": {"coordinates": [31.135360719621584, 3.26574993121443]}, "properties": {"assetType": "bridge", "title": "ORU", "structureId": "B142"}}, {"geometry": {"coordinates": [31.124160769703792, 3.252130031575746]}, "properties": {"assetType": "bridge", "title": "Enyau", "structureId": "B143"}}, {"geometry": {"coordinates": [32.055469510209775, 2.617810011323002]}, "properties": {"assetType": "bridge", "title": "Ayago", "structureId": "B144"}}, {"geometry": {"coordinates": [31.998680109999157, 2.417989968762072]}, "properties": {"assetType": "bridge", "title": "Ayago", "structureId": "B145"}}, {"geometry": {"coordinates": [31.92930984007711, 2.589319943960276]}, "properties": {"assetType": "bridge", "title": "AKAKU", "structureId": "B146"}}, {"geometry": {"coordinates": [32.93249130043324, 2.551820040262669]}, "properties": {"assetType": "bridge", "title": "ItungaBridge", "structureId": "B147"}}, {"geometry": {"coordinates": [32.936710360095105, 2.606460094058149]}, "properties": {"assetType": "bridge", "title": "PurangaBridge", "structureId": "B148"}}, {"geometry": {"coordinates": [32.92618941990588, 3.211002110758842]}, "properties": {"assetType": "bridge", "title": "DureBridge", "structureId": "B153"}}, {"geometry": {"coordinates": [32.879489900438614, 3.301239967050889]}, "properties": {"assetType": "bridge", "title": "PagerBridge", "structureId": "B154"}}, {"geometry": {"coordinates": [32.958000179964365, 3.367199898056924]}, "properties": {"assetType": "bridge", "title": "LanyangBridge", "structureId": "B155"}}, {"geometry": {"coordinates": [33.00468063020696, 3.396625995992964]}, "properties": {"assetType": "bridge", "title": "AringaBridge", "structureId": "B156"}}, {"geometry": {"coordinates": [34.580421449890025, 2.351439952991484]}, "properties": {"assetType": "bridge", "title": "LORENGEDWAT", "structureId": "B165"}}, {"geometry": {"coordinates": [34.57371140036088, 2.403490067212886]}, "properties": {"assetType": "bridge", "title": "NAMALERA", "structureId": "B166"}}, {"geometry": {"coordinates": [34.571781160272394, 2.444950104064105]}, "properties": {"assetType": "bridge", "title": "LOKALI", "structureId": "B167"}}, {"geometry": {"coordinates": [34.592708590229336, 2.51137995691954]}, "properties": {"assetType": "bridge", "title": "NADUNGET", "structureId": "B168"}}, {"geometry": {"coordinates": [34.333889009570214, 2.579090117914632]}, "properties": {"assetType": "bridge", "title": "LOKICHAR", "structureId": "B169"}}, {"geometry": {"coordinates": [34.11484908971374, 2.972440003803171]}, "properties": {"assetType": "bridge", "title": "PANYANGALA", "structureId": "B170"}}, {"geometry": {"coordinates": [34.09215927003436, 2.995810032007397]}, "properties": {"assetType": "bridge", "title": "LONGIRO", "structureId": "B171"}}, {"geometry": {"coordinates": [34.1187705996835, 3.331099986974892]}, "properties": {"assetType": "bridge", "title": "KATULANGOLE", "structureId": "B172"}}, {"geometry": {"coordinates": [34.14488983020158, 3.438220023735141]}, "properties": {"assetType": "bridge", "title": "LOCHOM", "structureId": "B173"}}, {"geometry": {"coordinates": [34.16579819003448, 3.499010085946736]}, "properties": {"assetType": "bridge", "title": "LOMUSAN", "structureId": "B174"}}, {"geometry": {"coordinates": [34.129119870086015, 3.519579887002237]}, "properties": {"assetType": "bridge", "title": "Kaabong", "structureId": "B175"}}, {"geometry": {"coordinates": [34.088291169901595, 3.628750085747924]}, "properties": {"assetType": "bridge", "title": "LAKAPELOT", "structureId": "B176"}}, {"geometry": {"coordinates": [34.07471848017377, 3.642689942586856]}, "properties": {"assetType": "bridge", "title": "YADALALA", "structureId": "B177"}}, {"geometry": {"coordinates": [34.03651047008219, 3.646189927723014]}, "properties": {"assetType": "bridge", "title": "NARIAMABUNE", "structureId": "B178"}}, {"geometry": {"coordinates": [33.751369479617836, 2.82158994691855]}, "properties": {"assetType": "bridge", "title": "LOYOROIT", "structureId": "B179"}}, {"geometry": {"coordinates": [33.349189760299225, 2.754719973048338]}, "properties": {"assetType": "bridge", "title": "AgagoBridge", "structureId": "B180"}}, {"geometry": {"coordinates": [33.063789370283246, 2.806020021207075]}, "properties": {"assetType": "bridge", "title": "Otakabridge", "structureId": "B181"}}, {"geometry": {"coordinates": [33.84783172995043, 1.858839988574687]}, "properties": {"assetType": "bridge", "title": "KOMOLO", "structureId": "B182"}}, {"geometry": {"coordinates": [33.86420058998527, 1.86416995467971]}, "properties": {"assetType": "bridge", "title": "GETOM", "structureId": "B183"}}, {"geometry": {"coordinates": [34.47827911029276, 2.43717002857403]}, "properties": {"assetType": "bridge", "title": "OmanimaBridge", "structureId": "B184"}}, {"geometry": {"coordinates": [33.22079848995838, 2.370719910395621]}, "properties": {"assetType": "bridge", "title": "ApakBridge", "structureId": "B185"}}, {"geometry": {"coordinates": [32.92588042993793, 2.24504208622335]}, "properties": {"assetType": "bridge", "title": "ApakBridge", "structureId": "B186"}}, {"geometry": {"coordinates": [32.40364837966905, 2.524723053326284]}, "properties": {"assetType": "bridge", "title": "TORCHI(AWOL)", "structureId": "B187"}}, {"geometry": {"coordinates": [32.73915862986695, 2.680180072652263]}, "properties": {"assetType": "bridge", "title": "ODEK", "structureId": "B188"}}, {"geometry": {"coordinates": [32.78622055003842, 2.687289952669232]}, "properties": {"assetType": "bridge", "title": "AWERE", "structureId": "B189"}}, {"geometry": {"coordinates": [32.84151076960637, 3.081049918618874]}, "properties": {"assetType": "bridge", "title": "AtikaBridge", "structureId": "B190"}}, {"geometry": {"coordinates": [32.76744842990115, 3.030689955177365]}, "properties": {"assetType": "bridge", "title": "AjanBridge", "structureId": "B192"}}, {"geometry": {"coordinates": [32.581310270052995, 2.958420038054385]}, "properties": {"assetType": "bridge", "title": "Aswa", "structureId": "B195"}}, {"geometry": {"coordinates": [32.28852080998746, 2.955080032417583]}, "properties": {"assetType": "bridge", "title": "UNYAMA", "structureId": "B196"}}, {"geometry": {"coordinates": [31.029880520169907, 2.377180098582755]}, "properties": {"assetType": "bridge", "title": "Nyarwotho", "structureId": "B197"}}, {"geometry": {"coordinates": [32.208080290373175, 3.266050099732354]}, "properties": {"assetType": "bridge", "title": "UnyamaBridge", "structureId": "B198"}}, {"geometry": {"coordinates": [32.362369540022314, 3.299149990279887]}, "properties": {"assetType": "bridge", "title": "AswaBridge", "structureId": "B199"}}, {"geometry": {"coordinates": [32.41333007971946, 3.369430064745757]}, "properties": {"assetType": "bridge", "title": "AwichBridge", "structureId": "B200"}}, {"geometry": {"coordinates": [32.52349854032543, 3.430540085056918]}, "properties": {"assetType": "bridge", "title": "BurkungBridge", "structureId": "B201"}}, {"geometry": {"coordinates": [32.85343169971321, 3.440890074017772]}, "properties": {"assetType": "bridge", "title": "Lagwel", "structureId": "B202"}}, {"geometry": {"coordinates": [32.591449740313294, 3.668659925215422]}, "properties": {"assetType": "bridge", "title": "LimuBridge", "structureId": "B203"}}, {"geometry": {"coordinates": [33.09194564977196, 3.619035958842461]}, "properties": {"assetType": "bridge", "title": "LakayeBridge", "structureId": "B205"}}, {"geometry": {"coordinates": [33.014541629892335, 3.79756999016297]}, "properties": {"assetType": "bridge", "title": "OkuraBridge", "structureId": "B206"}}, {"geometry": {"coordinates": [33.069129940294545, 3.260349988860923]}, "properties": {"assetType": "bridge", "title": "Kitgummatidi", "structureId": "B207"}}, {"geometry": {"coordinates": [31.392730710054252, 2.717770100110101]}, "properties": {"assetType": "bridge", "title": "ORAA1", "structureId": "B208"}}, {"geometry": {"coordinates": [31.391120910101964, 2.717010020995702]}, "properties": {"assetType": "bridge", "title": "ORAA2", "structureId": "B209"}}, {"geometry": {"coordinates": [31.200670240239447, 2.886670113435058]}, "properties": {"assetType": "bridge", "title": "AWA", "structureId": "B210"}}, {"geometry": {"coordinates": [31.24106979023867, 2.889790057665096]}, "properties": {"assetType": "bridge", "title": "ALLAH", "structureId": "B211"}}, {"geometry": {"coordinates": [31.147559581609475, 2.895422086260338]}, "properties": {"assetType": "bridge", "title": "OLEMIKA", "structureId": "B212"}}, {"geometry": {"coordinates": [31.357410430247228, 2.320270060614859]}, "properties": {"assetType": "bridge", "title": "BORO", "structureId": "B213"}}, {"geometry": {"coordinates": [31.335590360206993, 2.289880036934221]}, "properties": {"assetType": "bridge", "title": "KIVUJE", "structureId": "B214"}}, {"geometry": {"coordinates": [34.568561549575925, 2.034909963823793]}, "properties": {"assetType": "bridge", "title": "LOJORO", "structureId": "B215"}}, {"geometry": {"coordinates": [34.68143844982467, 2.100670098746093]}, "properties": {"assetType": "bridge", "title": "NAKOYITI", "structureId": "B216"}}, {"geometry": {"coordinates": [34.82659912025326, 1.944149971044396]}, "properties": {"assetType": "bridge", "title": "ChololoBridge", "structureId": "B217"}}, {"geometry": {"coordinates": [31.62547111959657, 0.893863976141631]}, "properties": {"assetType": "bridge", "title": "BUKOOLA", "structureId": "B223"}}, {"geometry": {"coordinates": [30.346517560337194, -0.102603002826299]}, "properties": {"assetType": "bridge", "title": "NKURUNGU", "structureId": "B227"}}, {"geometry": {"coordinates": [29.95899963042865, -0.651090026383542]}, "properties": {"assetType": "bridge", "title": "ButembeBridge", "structureId": "B228"}}, {"geometry": {"coordinates": [30.326915740069413, -0.263132988996176]}, "properties": {"assetType": "bridge", "title": "KYONYO", "structureId": "B229"}}, {"geometry": {"coordinates": [30.09859084978791, -1.311329961308616]}, "properties": {"assetType": "bridge", "title": "MazibaBridge", "structureId": "B230"}}, {"geometry": {"coordinates": [29.691560750328392, -0.979390025029602]}, "properties": {"assetType": "bridge", "title": "MpunguBridge", "structureId": "B231"}}, {"geometry": {"coordinates": [29.715990070185622, -1.224040031422249]}, "properties": {"assetType": "bridge", "title": "MuchaBridge", "structureId": "B232"}}, {"geometry": {"coordinates": [29.611579900292217, -1.197389959878705]}, "properties": {"assetType": "bridge", "title": "KakuBridge", "structureId": "B233"}}, {"geometry": {"coordinates": [29.64098929961654, -0.839060009012144]}, "properties": {"assetType": "bridge", "title": "IshashaBridge", "structureId": "B234"}}, {"geometry": {"coordinates": [29.637439730359347, -0.908450007361921]}, "properties": {"assetType": "bridge", "title": "MuyagaBridge", "structureId": "B235"}}, {"geometry": {"coordinates": [29.72121047997973, -0.765359998065435]}, "properties": {"assetType": "bridge", "title": "KirurumaBridge", "structureId": "B236"}}, {"geometry": {"coordinates": [29.822650910411255, -0.783659994812865]}, "properties": {"assetType": "bridge", "title": "Mitano01", "structureId": "B237"}}, {"geometry": {"coordinates": [29.846029279827466, -0.780749976630091]}, "properties": {"assetType": "bridge", "title": "KabaaleBridge", "structureId": "B238"}}, {"geometry": {"coordinates": [29.863130570219713, -0.676710009958924]}, "properties": {"assetType": "bridge", "title": "KakingoBridge", "structureId": "B239"}}, {"geometry": {"coordinates": [29.793699259713097, -0.583369970147942]}, "properties": {"assetType": "bridge", "title": "RushayaBridge", "structureId": "B240"}}, {"geometry": {"coordinates": [29.799570079895318, -0.683170020979617]}, "properties": {"assetType": "bridge", "title": "Mitano02", "structureId": "B241"}}, {"geometry": {"coordinates": [30.289899829913285, -0.623390018834243]}, "properties": {"assetType": "bridge", "title": "Rwamuganga01", "structureId": "B243"}}, {"geometry": {"coordinates": [30.16313933980871, -0.661450028396018]}, "properties": {"assetType": "bridge", "title": "Ndurumobridge", "structureId": "B246"}}, {"geometry": {"coordinates": [30.059270860361952, -0.685209990048975]}, "properties": {"assetType": "bridge", "title": "KATIZIBRIDGE", "structureId": "B248"}}, {"geometry": {"coordinates": [30.106710430142304, -0.206400006854778]}, "properties": {"assetType": "bridge", "title": "KYAMBURA", "structureId": "B249"}}, {"geometry": {"coordinates": [30.08773994024608, 0.320349990959357]}, "properties": {"assetType": "bridge", "title": "ENSHYA", "structureId": "B251"}}, {"geometry": {"coordinates": [29.748760219808332, 0.080889999973579]}, "properties": {"assetType": "bridge", "title": "RUBIRIHA", "structureId": "B252"}}, {"geometry": {"coordinates": [29.74073982028654, 0.095940000630549]}, "properties": {"assetType": "bridge", "title": "KABIRAbridge", "structureId": "B253"}}, {"geometry": {"coordinates": [31.003591539917693, 1.110944986422055]}, "properties": {"assetType": "bridge", "title": "Ruzairwe", "structureId": "B255"}}, {"geometry": {"coordinates": [30.155744550071006, 0.566563010074901]}, "properties": {"assetType": "bridge", "title": "Perepa", "structureId": "B256"}}, {"geometry": {"coordinates": [30.159677510209004, 0.599672973029328]}, "properties": {"assetType": "bridge", "title": "Mahoma", "structureId": "B258"}}, {"geometry": {"coordinates": [30.158283230087022, 0.619994998270613]}, "properties": {"assetType": "bridge", "title": "Dunga", "structureId": "B259"}}, {"geometry": {"coordinates": [30.158575060090985, 0.628507017584866]}, "properties": {"assetType": "bridge", "title": "Nyabuswa", "structureId": "B260"}}, {"geometry": {"coordinates": [30.17283249002742, 0.656084000576186]}, "properties": {"assetType": "bridge", "title": "Mpanga", "structureId": "B261"}}, {"geometry": {"coordinates": [30.237966540323615, 0.929418205585762]}, "properties": {"assetType": "bridge", "title": "Dongoi", "structureId": "B263"}}, {"geometry": {"coordinates": [30.822843550389567, 1.065775036588718]}, "properties": {"assetType": "bridge", "title": "Murungu", "structureId": "B264"}}, {"geometry": {"coordinates": [31.122690200092734, 1.024243950597906]}, "properties": {"assetType": "bridge", "title": "Nguse", "structureId": "B265"}}, {"geometry": {"coordinates": [30.532640459589576, 0.302792996099924]}, "properties": {"assetType": "bridge", "title": "Mpanga", "structureId": "B266"}}, {"geometry": {"coordinates": [30.413820299667123, 0.108709999566884]}, "properties": {"assetType": "bridge", "title": "MPANGABRIDGE", "structureId": "B268"}}, {"geometry": {"coordinates": [30.237964630163617, 0.929418026620681]}, "properties": {"assetType": "bridge", "title": "Kisenge", "structureId": "B269"}}, {"geometry": {"coordinates": [31.11484909031333, 1.52989900083827]}, "properties": {"assetType": "bridge", "title": "WAMBABYA", "structureId": "B270"}}, {"geometry": {"coordinates": [31.182920460410973, 1.374377011789704]}, "properties": {"assetType": "bridge", "title": "WAMBABYA", "structureId": "B271"}}, {"geometry": {"coordinates": [31.248861309601804, 1.381651044160435]}, "properties": {"assetType": "bridge", "title": "Wambabya", "structureId": "B272"}}, {"geometry": {"coordinates": [31.209573749728808, 1.569412947049898]}, "properties": {"assetType": "bridge", "title": "Wambabya", "structureId": "B274"}}, {"geometry": {"coordinates": [31.103519440170086, 1.558344006770539]}, "properties": {"assetType": "bridge", "title": "WAMBABYA", "structureId": "B275"}}, {"geometry": {"coordinates": [31.445180890385814, 0.955429970716636]}, "properties": {"assetType": "bridge", "title": "Kanangaro", "structureId": "B276"}}, {"geometry": {"coordinates": [32.57189940982994, 2.202049970629673]}, "properties": {"assetType": "bridge", "title": "OkoleBridge1", "structureId": "B277"}}, {"geometry": {"coordinates": [32.43349075039788, 2.408555984271288]}, "properties": {"assetType": "bridge", "title": "WALABAM", "structureId": "B278"}}, {"geometry": {"coordinates": [32.43350983041438, 2.408600092420385]}, "properties": {"assetType": "bridge", "title": "TochiBridge", "structureId": "B279"}}, {"geometry": {"coordinates": [33.28406906043887, 2.119689940738226]}, "properties": {"assetType": "bridge", "title": "EyamaBridge", "structureId": "B281"}}, {"geometry": {"coordinates": [33.21897125012316, 2.158299922603419]}, "properties": {"assetType": "bridge", "title": "EngetBridge", "structureId": "B282"}}, {"geometry": {"coordinates": [33.22130966011275, 2.152600050052343]}, "properties": {"assetType": "bridge", "title": "AkokowoBridge", "structureId": "B283"}}, {"geometry": {"coordinates": [33.21133436858935, 2.076529257609288]}, "properties": {"assetType": "bridge", "title": "EngetBridge", "structureId": "B284"}}, {"geometry": {"coordinates": [32.94353103972577, 2.427239895304979]}, "properties": {"assetType": "bridge", "title": "ApocBridge", "structureId": "B285"}}, {"geometry": {"coordinates": [33.00075912023726, 2.414069891412395]}, "properties": {"assetType": "bridge", "title": "ObimBridge", "structureId": "B286"}}, {"geometry": {"coordinates": [33.082981109590605, 2.373059987728311]}, "properties": {"assetType": "bridge", "title": "ApochiBridge", "structureId": "B287"}}, {"geometry": {"coordinates": [33.16363906998714, 2.289334059419332]}, "properties": {"assetType": "bridge", "title": "BuaporoBridge", "structureId": "B288"}}, {"geometry": {"coordinates": [33.083869930253115, 2.428214073320873]}, "properties": {"assetType": "bridge", "title": "APOC", "structureId": "B289"}}, {"geometry": {"coordinates": [33.15679169038424, 2.458509921795496]}, "properties": {"assetType": "bridge", "title": "AkweraBridge", "structureId": "B290"}}, {"geometry": {"coordinates": [33.158039089632325, 2.582999944791652]}, "properties": {"assetType": "bridge", "title": "OkeeBridge", "structureId": "B291"}}, {"geometry": {"coordinates": [33.10073090021092, 2.84952592757952]}, "properties": {"assetType": "bridge", "title": "AGAGO", "structureId": "B292"}}, {"geometry": {"coordinates": [33.309791560432245, 2.779660939700647]}, "properties": {"assetType": "bridge", "title": "AGAGO", "structureId": "B293"}}, {"geometry": {"coordinates": [33.309848789689966, 2.779876946963555]}, "properties": {"assetType": "bridge", "title": "AGAGO", "structureId": "B294"}}, {"geometry": {"coordinates": [33.30992125975837, 2.780134915693849]}, "properties": {"assetType": "bridge", "title": "AGAGO", "structureId": "B295"}}, {"geometry": {"coordinates": [33.369270320269095, 3.007682084860392]}, "properties": {"assetType": "bridge", "title": "AGAGO", "structureId": "B296"}}, {"geometry": {"coordinates": [33.143001559874165, 3.174999952385917]}, "properties": {"assetType": "bridge", "title": "BULUGI", "structureId": "B297"}}, {"geometry": {"coordinates": [33.057758329583294, 3.264446973648944]}, "properties": {"assetType": "bridge", "title": "ODYAKA", "structureId": "B298"}}, {"geometry": {"coordinates": [33.48255919994716, 2.866307019753207]}, "properties": {"assetType": "bridge", "title": "NAGOYA", "structureId": "B299"}}, {"geometry": {"coordinates": [33.24465179044785, 2.26108002722151]}, "properties": {"assetType": "bridge", "title": "OrokBridge", "structureId": "B300"}}, {"geometry": {"coordinates": [32.21268081996391, 2.755029917196964]}, "properties": {"assetType": "bridge", "title": "TORCHI", "structureId": "B301"}}, {"geometry": {"coordinates": [32.16902160975951, 2.74932002979557]}, "properties": {"assetType": "bridge", "title": "AYAGO", "structureId": "B302"}}, {"geometry": {"coordinates": [32.13748932027596, 2.742680073426697]}, "properties": {"assetType": "bridge", "title": "AYAGO(MAIN)", "structureId": "B303"}}, {"geometry": {"coordinates": [31.761480330253107, 2.853285073947064]}, "properties": {"assetType": "bridge", "title": "OMEE", "structureId": "B308"}}, {"geometry": {"coordinates": [31.66439055997643, 2.876518011297207]}, "properties": {"assetType": "bridge", "title": "APA", "structureId": "B312"}}, {"geometry": {"coordinates": [31.585819239866055, 2.87382602744924]}, "properties": {"assetType": "bridge", "title": "OCIIP", "structureId": "B313"}}, {"geometry": {"coordinates": [31.86565970982781, 2.960033893949116]}, "properties": {"assetType": "bridge", "title": "OMEE", "structureId": "B314"}}, {"geometry": {"coordinates": [31.782270430136297, 3.088958025192767]}, "properties": {"assetType": "bridge", "title": "ZOKA", "structureId": "B315"}}, {"geometry": {"coordinates": [32.08053970044688, 3.110177993819433]}, "properties": {"assetType": "bridge", "title": "AYUGI", "structureId": "B316"}}, {"geometry": {"coordinates": [32.00889969006869, 3.208379984448754]}, "properties": {"assetType": "bridge", "title": "OPIO", "structureId": "B317"}}, {"geometry": {"coordinates": [32.00091171020733, 3.20962810495314]}, "properties": {"assetType": "bridge", "title": "AMORO", "structureId": "B318"}}, {"geometry": {"coordinates": [31.9387493104324, 3.239865064920877]}, "properties": {"assetType": "bridge", "title": "YUBA", "structureId": "B319"}}, {"geometry": {"coordinates": [31.892400739702456, 3.317712069256629]}, "properties": {"assetType": "bridge", "title": "ADIDI", "structureId": "B320"}}, {"geometry": {"coordinates": [31.868850710392, 3.336602925984324]}, "properties": {"assetType": "bridge", "title": "ODRAGI", "structureId": "B321"}}, {"geometry": {"coordinates": [32.339450840184156, 3.228940009873611]}, "properties": {"assetType": "bridge", "title": "AGAGURA", "structureId": "B323"}}, {"geometry": {"coordinates": [32.8277587901361, 3.466109037302259]}, "properties": {"assetType": "bridge", "title": "LAGWEL", "structureId": "B324"}}, {"geometry": {"coordinates": [32.70388030972856, 3.428234100123688]}, "properties": {"assetType": "bridge", "title": "PAUO", "structureId": "B325"}}, {"geometry": {"coordinates": [33.055511469678606, 3.612577914639075]}, "properties": {"assetType": "bridge", "title": "OKWORA", "structureId": "B326"}}, {"geometry": {"coordinates": [32.95024872000249, 3.592566013410816]}, "properties": {"assetType": "bridge", "title": "ARINGA", "structureId": "B327"}}, {"geometry": {"coordinates": [32.89471054025927, 3.716733931625697]}, "properties": {"assetType": "bridge", "title": "ARINGA", "structureId": "B328"}}, {"geometry": {"coordinates": [31.45906066981411, 3.230705022918528]}, "properties": {"assetType": "bridge", "title": "NGAGO", "structureId": "B330"}}, {"geometry": {"coordinates": [31.651870729950307, 3.605514050233297]}, "properties": {"assetType": "bridge", "title": "LEA", "structureId": "B331"}}, {"geometry": {"coordinates": [31.62636948026733, 3.450858116408995]}, "properties": {"assetType": "bridge", "title": "NYAWA", "structureId": "B332"}}, {"geometry": {"coordinates": [31.563539510140345, 3.370255947254235]}, "properties": {"assetType": "bridge", "title": "OMPOSO", "structureId": "B333"}}, {"geometry": {"coordinates": [32.01168059977988, 3.484213114044052]}, "properties": {"assetType": "bridge", "title": "TETE", "structureId": "B334"}}, {"geometry": {"coordinates": [30.97270965992294, 3.175309895635223]}, "properties": {"assetType": "bridge", "title": "BALIBO", "structureId": "B335"}}, {"geometry": {"coordinates": [31.25868987973422, 2.258690119353559]}, "properties": {"assetType": "bridge", "title": "OGUTA", "structureId": "B336"}}, {"geometry": {"coordinates": [31.21225928993431, 2.281500101048892]}, "properties": {"assetType": "bridge", "title": "ARAGA", "structureId": "B337"}}, {"geometry": {"coordinates": [31.209970470360986, 2.295399903882526]}, "properties": {"assetType": "bridge", "title": "ACODHO", "structureId": "B338"}}, {"geometry": {"coordinates": [31.059999470199443, 2.378370047339843]}, "properties": {"assetType": "bridge", "title": "CIDO", "structureId": "B339"}}, {"geometry": {"coordinates": [31.04668998955145, 2.380429983157228]}, "properties": {"assetType": "bridge", "title": "NYARWOTHO", "structureId": "B340"}}, {"geometry": {"coordinates": [30.89274025016249, 3.028330088263032]}, "properties": {"assetType": "bridge", "title": "ENYAU", "structureId": "B344"}}, {"geometry": {"coordinates": [30.883100509780775, 3.043200015868081]}, "properties": {"assetType": "bridge", "title": "OKAYIVA", "structureId": "B345"}}, {"geometry": {"coordinates": [30.827459339676867, 3.054500102597728]}, "properties": {"assetType": "bridge", "title": "ESI", "structureId": "B346"}}, {"geometry": {"coordinates": [31.030380250048555, 3.201159953668991]}, "properties": {"assetType": "bridge", "title": "ENYAWU-CHILLiO", "structureId": "B347"}}, {"geometry": {"coordinates": [31.253129959679935, 3.550000668396194]}, "properties": {"assetType": "bridge", "title": "KOCHI", "structureId": "B348"}}, {"geometry": {"coordinates": [31.06719970959898, 3.050179958238515]}, "properties": {"assetType": "bridge", "title": "OSU", "structureId": "B349"}}, {"geometry": {"coordinates": [34.01461029023278, 0.711359977580969]}, "properties": {"assetType": "bridge", "title": "KORUBUDEBRIDGE", "structureId": "B352"}}, {"geometry": {"coordinates": [34.11037827024103, 0.867760002622049]}, "properties": {"assetType": "bridge", "title": "KaminimaBridge", "structureId": "B354"}}, {"geometry": {"coordinates": [34.111400599757935, 0.870580017553834]}, "properties": {"assetType": "bridge", "title": "Kamunima", "structureId": "B355"}}, {"geometry": {"coordinates": [34.06581879010514, 0.940150023304966]}, "properties": {"assetType": "bridge", "title": "KAPISABRIDGE", "structureId": "B357"}}, {"geometry": {"coordinates": [34.02515029964667, 0.918099999315587]}, "properties": {"assetType": "bridge", "title": "NAMULO-BRIGE", "structureId": "B359"}}, {"geometry": {"coordinates": [34.015369419663045, 0.823920011599285]}, "properties": {"assetType": "bridge", "title": "PAYA", "structureId": "B360"}}, {"geometry": {"coordinates": [34.0362091099625, 1.021929978785522]}, "properties": {"assetType": "bridge", "title": "JALAJA", "structureId": "B361"}}, {"geometry": {"coordinates": [34.04174041988455, 1.016870022433636]}, "properties": {"assetType": "bridge", "title": "NAHAMYABRIDGE", "structureId": "B362"}}, {"geometry": {"coordinates": [33.971038819685816, 1.198210000591075]}, "properties": {"assetType": "bridge", "title": "KITOIKAWUNONI", "structureId": "B363"}}, {"geometry": {"coordinates": [34.188308719971474, 1.083330034953178]}, "properties": {"assetType": "bridge", "title": "BUSAMAGA", "structureId": "B364"}}, {"geometry": {"coordinates": [34.278999330055115, 1.105270027789572]}, "properties": {"assetType": "bridge", "title": "NAMATYALE", "structureId": "B365"}}, {"geometry": {"coordinates": [34.30448150961405, 1.281679988140979]}, "properties": {"assetType": "bridge", "title": "PONDO", "structureId": "B366"}}, {"geometry": {"coordinates": [34.34109878987733, 1.244600057946343]}, "properties": {"assetType": "bridge", "title": "SIMU", "structureId": "B367"}}, {"geometry": {"coordinates": [34.35382080008992, 1.263399959040953]}, "properties": {"assetType": "bridge", "title": "SISI", "structureId": "B368"}}, {"geometry": {"coordinates": [34.29597855007006, 0.930769980150501]}, "properties": {"assetType": "bridge", "title": "KUFFU", "structureId": "B369"}}, {"geometry": {"coordinates": [34.30773925965917, 0.924589991934624]}, "properties": {"assetType": "bridge", "title": "NABUKHYA", "structureId": "B370"}}, {"geometry": {"coordinates": [34.35997008994775, 0.916220008846381]}, "properties": {"assetType": "bridge", "title": "Methi", "structureId": "B372"}}, {"geometry": {"coordinates": [34.359649659704075, 0.907729983352113]}, "properties": {"assetType": "bridge", "title": "NAMISINDWA", "structureId": "B373"}}, {"geometry": {"coordinates": [33.79502868982223, 1.356400012850372]}, "properties": {"assetType": "bridge", "title": "ATOOT", "structureId": "B378"}}, {"geometry": {"coordinates": [33.60073090011099, 2.141989945679483]}, "properties": {"assetType": "bridge", "title": "OPOT", "structureId": "B379"}}, {"geometry": {"coordinates": [34.89587021024204, 2.213249922346108]}, "properties": {"assetType": "bridge", "title": null, "structureId": "b380"}}, {"geometry": {"coordinates": [34.942810060036265, 1.959609985212694]}, "properties": {"assetType": "bridge", "title": "KANYANGAREN", "structureId": "B382"}}, {"geometry": {"coordinates": [34.058391569915045, 1.755859970960955]}, "properties": {"assetType": "bridge", "title": "OMONGO", "structureId": "B383"}}, {"geometry": {"coordinates": [34.391780850006285, 2.469710111832228]}, "properties": {"assetType": "bridge", "title": "NAKODONGOT", "structureId": "B384"}}, {"geometry": {"coordinates": [33.190460209671016, 0.44488200510051]}, "properties": {"assetType": "bridge", "title": "KIIRA", "structureId": "B387"}}, {"geometry": {"coordinates": [32.87857819023134, 0.674860001288096]}, "properties": {"assetType": "bridge", "title": "SezibwaBridge", "structureId": "B388"}}, {"geometry": {"coordinates": [33.186019899698636, 0.443125010410938]}, "properties": {"assetType": "bridge", "title": "NALUBAALE", "structureId": "B389"}}, {"geometry": {"coordinates": [32.65380095994641, 0.348309994310853]}, "properties": {"assetType": "bridge", "title": "KNB_01", "structureId": "B390"}}, {"geometry": {"coordinates": [32.647899630263794, 0.363642990931339]}, "properties": {"assetType": "bridge", "title": "KyaliwajjalaBridge", "structureId": "B392"}}, {"geometry": {"coordinates": [32.62776946998508, 0.36941999203907]}, "properties": {"assetType": "bridge", "title": "KNBP_03", "structureId": "B393"}}, {"geometry": {"coordinates": [32.624740600098676, 0.369320005413954]}, "properties": {"assetType": "bridge", "title": "KNBP_04", "structureId": "B394"}}, {"geometry": {"coordinates": [32.59857940991191, 0.358790009951065]}, "properties": {"assetType": "bridge", "title": "KNBP_05", "structureId": "B395"}}, {"geometry": {"coordinates": [32.57949828991423, 0.350540011712212]}, "properties": {"assetType": "bridge", "title": "KNBP_06", "structureId": "B396"}}, {"geometry": {"coordinates": [32.56914138966346, 0.352609992057523]}, "properties": {"assetType": "bridge", "title": "KNBP_07", "structureId": "B397"}}, {"geometry": {"coordinates": [32.56336975031377, 0.349489986673575]}, "properties": {"assetType": "bridge", "title": "KNBP_09", "structureId": "B399"}}, {"geometry": {"coordinates": [32.56264114027647, 0.349400013999514]}, "properties": {"assetType": "bridge", "title": "KNBP_11", "structureId": "B401"}}, {"geometry": {"coordinates": [32.55342864981242, 0.347149998373766]}, "properties": {"assetType": "bridge", "title": "KNBP_12", "structureId": "B402"}}, {"geometry": {"coordinates": [32.02782822029616, 2.815089941247834]}, "properties": {"assetType": "bridge", "title": "OLWAL", "structureId": "B406"}}, {"geometry": {"coordinates": [31.993349079996108, 2.812711953893597]}, "properties": {"assetType": "bridge", "title": "ASHAW", "structureId": "B407"}}, {"geometry": {"coordinates": [34.33322906007311, 0.923179983569412]}, "properties": {"assetType": "bridge", "title": "KUFU", "structureId": "B408"}}, {"geometry": {"coordinates": [33.79732894967134, 1.191419959063921]}, "properties": {"assetType": "bridge", "title": "Palisa-KadotoBridge", "structureId": "B410"}}, {"geometry": {"coordinates": [34.22364044005434, 0.942390024979715]}, "properties": {"assetType": "bridge", "title": "SHIKOYEBRIDGE", "structureId": "B411"}}, {"geometry": {"coordinates": [31.928689959873793, 3.256454945039706]}, "properties": {"assetType": "bridge", "title": "ARAGI", "structureId": "B413"}}, {"geometry": {"coordinates": [32.02238845955981, 3.199851036296308]}, "properties": {"assetType": "bridge", "title": "LAIMON", "structureId": "B414"}}, {"geometry": {"coordinates": [31.81439018016272, 3.153815985419442]}, "properties": {"assetType": "bridge", "title": "ASIYA", "structureId": "B415"}}, {"geometry": {"coordinates": [30.648229600016066, -1.065500021009143]}, "properties": {"assetType": "bridge", "title": "MURONGOBRIDGE", "structureId": "B430"}}, {"geometry": {"coordinates": [32.21752166998914, 0.560482978806476]}, "properties": {"assetType": "bridge", "title": "BusunjuBridge", "structureId": "B450"}}, {"geometry": {"coordinates": [32.13877486966453, 0.61310297272405]}, "properties": {"assetType": "bridge", "title": "MateBridge", "structureId": "B451"}}, {"geometry": {"coordinates": [32.11521148991835, 0.630630015662746]}, "properties": {"assetType": "bridge", "title": "NanaBridge", "structureId": "B452"}}, {"geometry": {"coordinates": [32.23527527013766, 0.578106999238685]}, "properties": {"assetType": "bridge", "title": "Wamika2", "structureId": "B453"}}, {"geometry": {"coordinates": [32.234737400011056, 0.576425016101666]}, "properties": {"assetType": "bridge", "title": "Wamika1", "structureId": "B454"}}, {"geometry": {"coordinates": [32.93584060955652, 0.368310003803686]}, "properties": {"assetType": "bridge", "title": "Lugazi", "structureId": "B455"}}, {"geometry": {"coordinates": [32.515956879606335, 0.278185992689487]}, "properties": {"assetType": "bridge", "title": null, "structureId": "B456"}}, {"geometry": {"coordinates": [32.95985031024367, 0.375939995034798]}, "properties": {"assetType": "bridge", "title": null, "structureId": "B457"}}, {"geometry": {"coordinates": [32.05411910980911, 0.683305978887858]}, "properties": {"assetType": "bridge", "title": null, "structureId": "B458"}}, {"geometry": {"coordinates": [31.90908050975776, 1.121909975864753]}, "properties": {"assetType": "bridge", "title": "KabaaleBridge", "structureId": "B459"}}, {"geometry": {"coordinates": [31.964450840034313, 0.425489992169446]}, "properties": {"assetType": "bridge", "title": null, "structureId": "B460"}}, {"geometry": {"coordinates": [31.582759859579884, -0.899100006060394]}, "properties": {"assetType": "bridge", "title": "BukoolaBridge", "structureId": "B461"}}, {"geometry": {"coordinates": [32.00743865956656, 0.03426000079844]}, "properties": {"assetType": "bridge", "title": "KatongaBridge", "structureId": "B462"}}, {"geometry": {"coordinates": [30.287900920291293, -0.623359977880625]}, "properties": {"assetType": "bridge", "title": "Rwamuganga-02", "structureId": "B540"}}, {"geometry": {"coordinates": [30.94823073975687, 1.065500021209061]}, "properties": {"assetType": "bridge", "title": "MurongoBridge", "structureId": "B541"}}, {"geometry": {"coordinates": [30.45960045030057, -1.052320004064882]}, "properties": {"assetType": "bridge", "title": "MiramaBorder_02", "structureId": "B542"}}, {"geometry": {"coordinates": [30.5310707100453, -0.132909998397679]}, "properties": {"assetType": "bridge", "title": "KYAMBUBRIDGE", "structureId": "B543"}}, {"geometry": {"coordinates": [30.68036079031828, -0.096660003056627]}, "properties": {"assetType": "bridge", "title": "NYAMASHEKYEBRIDGE", "structureId": "B545"}}, {"geometry": {"coordinates": [30.462139130316643, -0.100720003225547]}, "properties": {"assetType": "bridge", "title": "MPANGABRIDGE", "structureId": "B546"}}, {"geometry": {"coordinates": [30.486200329781465, -0.171049997259502]}, "properties": {"assetType": "bridge", "title": "IBANDA", "structureId": "B547"}}, {"geometry": {"coordinates": [29.89757919022747, 0.07288000021191]}, "properties": {"assetType": "bridge", "title": "RWEMBYO", "structureId": "B549"}}, {"geometry": {"coordinates": [29.87247085974241, 0.062799997621823]}, "properties": {"assetType": "bridge", "title": "KAJWENGE", "structureId": "B550"}}, {"geometry": {"coordinates": [30.005420680220254, 0.213620007257589]}, "properties": {"assetType": "bridge", "title": "KYANJUKI", "structureId": "B551"}}, {"geometry": {"coordinates": [30.088380809726633, 0.177139996813423]}, "properties": {"assetType": "bridge", "title": "DELTA", "structureId": "B552"}}, {"geometry": {"coordinates": [30.101089480295343, -1.303719997080179]}, "properties": {"assetType": "bridge", "title": "OmukabareBridge", "structureId": "B553"}}, {"geometry": {"coordinates": [30.183029169760406, -1.053179978972821]}, "properties": {"assetType": "bridge", "title": "RukiriBridge", "structureId": "B554"}}, {"geometry": {"coordinates": [30.30652045965155, -1.146260022981608]}, "properties": {"assetType": "bridge", "title": "KizingaBridge", "structureId": "B555"}}, {"geometry": {"coordinates": [29.63575934981418, -0.937409996574047]}, "properties": {"assetType": "bridge", "title": "MunyagaBridge", "structureId": "B556"}}, {"geometry": {"coordinates": [31.908895490434585, 1.121958970929825]}, "properties": {"assetType": "bridge", "title": "Mayanja", "structureId": "B630"}}, {"geometry": {"coordinates": [31.001485819614913, 1.411473036251664]}, "properties": {"assetType": "bridge", "title": "Rutooha", "structureId": "B631"}}, {"geometry": {"coordinates": [30.757860179703584, 1.240206956985503]}, "properties": {"assetType": "bridge", "title": "Kingfisher", "structureId": "B632"}}, {"geometry": {"coordinates": [30.490772250139287, 0.15828399421099]}, "properties": {"assetType": "bridge", "title": "MPANGA", "structureId": "B634"}}, {"geometry": {"coordinates": [32.92089844031085, 3.730370045141512]}, "properties": {"assetType": "bridge", "title": "LAKUREBRIDGE", "structureId": "B720"}}, {"geometry": {"coordinates": [31.087560650303825, 3.126929998320805]}, "properties": {"assetType": "bridge", "title": "ISA", "structureId": "B732"}}, {"geometry": {"coordinates": [31.085590359807327, 3.144170046010856]}, "properties": {"assetType": "bridge", "title": "NAARA", "structureId": "B733"}}, {"geometry": {"coordinates": [31.24106979023867, 2.889699935703504]}, "properties": {"assetType": "bridge", "title": "GAZI(ALLA)", "structureId": "B735"}}, {"geometry": {"coordinates": [30.959890370044604, 2.415899991991068]}, "properties": {"assetType": "bridge", "title": "AYUALA", "structureId": "B736"}}, {"geometry": {"coordinates": [30.957639689819874, 2.433150052732798]}, "properties": {"assetType": "bridge", "title": "NYAGAK", "structureId": "B737"}}, {"geometry": {"coordinates": [30.86418915030907, 2.566879988320864]}, "properties": {"assetType": "bridge", "title": "ORAA", "structureId": "B738"}}, {"geometry": {"coordinates": [30.891269679652055, 2.589970112430819]}, "properties": {"assetType": "bridge", "title": "ANIZA", "structureId": "B739"}}, {"geometry": {"coordinates": [30.873649600049077, 2.618390083035933]}, "properties": {"assetType": "bridge", "title": "OMOLO", "structureId": "B740"}}, {"geometry": {"coordinates": [30.851340445348328, 2.737728945665874]}, "properties": {"assetType": "bridge", "title": "ODRUA", "structureId": "B741"}}, {"geometry": {"coordinates": [30.931869509570273, 2.967010021395424]}, "properties": {"assetType": "bridge", "title": "ALLA", "structureId": "B743"}}, {"geometry": {"coordinates": [32.4338989301915, 2.408590077570068]}, "properties": {"assetType": "bridge", "title": "Tochi2Bridge", "structureId": "B750"}}, {"geometry": {"coordinates": [32.513000489680906, 2.203739882189836]}, "properties": {"assetType": "bridge", "title": "OkoleBridge2", "structureId": "B751"}}, {"geometry": {"coordinates": [32.5633768486627, 2.204653998982906]}, "properties": {"assetType": "bridge", "title": "OkoleBridge3", "structureId": "B752"}}, {"geometry": {"coordinates": [33.298019409668086, 0.492949992348315]}, "properties": {"assetType": "bridge", "title": "ROADOVERSUGARCANEPLANTATION", "structureId": "B861"}}, {"geometry": {"coordinates": [33.31924056989641, 0.504000008193884]}, "properties": {"assetType": "bridge", "title": "ROADOVERSUGARCANEPLANTATION", "structureId": "B862"}}, {"geometry": {"coordinates": [34.052410130423254, 0.585520029026156]}, "properties": {"assetType": "bridge", "title": "MALAWABRIDGE", "structureId": "B863"}}, {"geometry": {"coordinates": [34.370029450398874, 1.151049971578971]}, "properties": {"assetType": "bridge", "title": "KIGULIBRIDGE", "structureId": "B864"}}, {"geometry": {"coordinates": [33.99031066970167, 0.928309977323636]}, "properties": {"assetType": "bridge", "title": "LERESIBRIDGE", "structureId": "B865"}}, {"geometry": {"coordinates": [34.157741549632874, 0.937099993270124]}, "properties": {"assetType": "bridge", "title": "MANAFA", "structureId": "B866"}}, {"geometry": {"coordinates": [34.33443069012429, 1.004209995295071]}, "properties": {"assetType": "bridge", "title": "BUWANGANI", "structureId": "B867"}}, {"geometry": {"coordinates": [34.0294189497248, 2.998950005038751]}, "properties": {"assetType": "bridge", "title": "DOPETH", "structureId": "B868"}}, {"geometry": {"coordinates": [33.547279359754725, 2.722510099261741]}, "properties": {"assetType": "bridge", "title": "AGAGO", "structureId": "B869"}}, {"geometry": {"coordinates": [34.312061309681724, 1.166739940595846]}, "properties": {"assetType": "bridge", "title": "WASITA", "structureId": "B870"}}, {"geometry": {"coordinates": [34.19195938022125, 0.835129976367341]}, "properties": {"assetType": "bridge", "title": "LWANJUSIBRIDGE", "structureId": "B871"}}, {"geometry": {"coordinates": [34.63338089021596, 1.348180055565138]}, "properties": {"assetType": "bridge", "title": "SITI", "structureId": "B872"}}, {"geometry": {"coordinates": [34.718498229809484, 1.448330045195461]}, "properties": {"assetType": "bridge", "title": "GIRIK", "structureId": "B873"}}, {"geometry": {"coordinates": [34.73983002013938, 1.288439988714572]}, "properties": {"assetType": "bridge", "title": "BUKWO", "structureId": "B874"}}, {"geometry": {"coordinates": [34.12166977024373, 0.903039991902176]}, "properties": {"assetType": "bridge", "title": "NANGIPA", "structureId": "B875"}}, {"geometry": {"coordinates": [34.11909102992712, 0.893779992952375]}, "properties": {"assetType": "bridge", "title": "LUKHA", "structureId": "B876"}}, {"geometry": {"coordinates": [34.73360825032057, 1.216050029185567]}, "properties": {"assetType": "bridge", "title": "SUAMBRIDGE", "structureId": "B877"}}, {"geometry": {"coordinates": [34.22352981984534, 2.489130019934521]}, "properties": {"assetType": "bridge", "title": "LONENE", "structureId": "B879"}}, {"geometry": {"coordinates": [33.99502182040072, 0.930549978998386]}, "properties": {"assetType": "bridge", "title": "DOHO-MALIKBRIDGE", "structureId": "B880"}}, {"geometry": {"coordinates": [34.121719359760675, 0.690450013357463]}, "properties": {"assetType": "bridge", "title": "MUSUKULEBRIDGE", "structureId": "B881"}}, {"geometry": {"coordinates": [34.01454162969253, 0.710789979174251]}, "properties": {"assetType": "bridge", "title": "ADEYOBRIDGE", "structureId": "B882"}}, {"geometry": {"coordinates": [34.13825988958229, 0.582099973834772]}, "properties": {"assetType": "bridge", "title": "ANGOLOBRIDGE", "structureId": "B883"}}, {"geometry": {"coordinates": [34.13790131009745, 0.582019985434044]}, "properties": {"assetType": "bridge", "title": "AKATENYANIBRIDGE", "structureId": "B884"}}, {"geometry": {"coordinates": [34.11672974028534, 0.520410001420487]}, "properties": {"assetType": "bridge", "title": "OKAMEBRIDGE", "structureId": "B885"}}, {"geometry": {"coordinates": [34.13930892986326, 0.585739969923736]}, "properties": {"assetType": "bridge", "title": "KWAKITEZABRIDGE", "structureId": "B886"}}, {"geometry": {"coordinates": [34.24945067970515, 3.315550089165356]}, "properties": {"assetType": "bridge", "title": "NATARACHABRIDGE", "structureId": "B887"}}, {"geometry": {"coordinates": [32.54252582420747, 0.345210509657363]}, "properties": {"assetType": "bridge", "title": null, "structureId": ""}}, {"geometry": {"coordinates": [32.52952273808393, 0.208797879318695]}, "properties": {"assetType": "bridge", "title": null, "structureId": ""}}, {"geometry": {"coordinates": [32.5099792496427, 0.301039994400242]}, "properties": {"assetType": "bridge", "title": "Busega", "structureId": "B003"}}, {"geometry": {"coordinates": [31.488460539922016, -0.842540025601636]}, "properties": {"assetType": "bridge", "title": "Bukoola", "structureId": "B011"}}, {"geometry": {"coordinates": [32.41814041035173, 0.329349995006339]}, "properties": {"assetType": "bridge", "title": "Buyala", "structureId": "B012"}}, {"geometry": {"coordinates": [32.04188918973438, 1.542610049214431]}, "properties": {"assetType": "bridge", "title": "KafuBridge", "structureId": "B023"}}, {"geometry": {"coordinates": [34.17914963035122, 1.083080053102037]}, "properties": {"assetType": "bridge", "title": "NABUYONGABRIDGE", "structureId": "B027"}}, {"geometry": {"coordinates": [31.90908050975776, 0.82068997596167]}, "properties": {"assetType": "bridge", "title": "KayirilaBridge", "structureId": "B041"}}, {"geometry": {"coordinates": [31.198520660000497, -0.46900999521506]}, "properties": {"assetType": "bridge", "title": "Buyanja", "structureId": "B061"}}, {"geometry": {"coordinates": [30.706159589693357, -0.084469995793597]}, "properties": {"assetType": "bridge", "title": "Rushango-Bridge", "structureId": "B063"}}, {"geometry": {"coordinates": [32.78351974024389, 3.045589923736031]}, "properties": {"assetType": "bridge", "title": "OgengBridge", "structureId": "B191"}}, {"geometry": {"coordinates": [32.75542068012033, 3.019249915950922]}, "properties": {"assetType": "bridge", "title": "AtangaBridge", "structureId": "B193"}}, {"geometry": {"coordinates": [32.345340729591044, 2.821530104230987]}, "properties": {"assetType": "bridge", "title": "Unyama", "structureId": "B194"}}, {"geometry": {"coordinates": [32.698471070183814, 0.349049985268664]}, "properties": {"assetType": "bridge", "title": "KoloBridge", "structureId": "B218"}}, {"geometry": {"coordinates": [32.440330510045044, 0.021860000038998]}, "properties": {"assetType": "bridge", "title": "KigunguBridge", "structureId": "B220"}}, {"geometry": {"coordinates": [32.251449579834286, 0.407149999872615]}, "properties": {"assetType": "bridge", "title": "Mayanja", "structureId": "B222"}}, {"geometry": {"coordinates": [32.17184830035882, 0.681949973012877]}, "properties": {"assetType": "bridge", "title": "MAYANJABRIDGE", "structureId": "B225"}}, {"geometry": {"coordinates": [32.51232565147198, 0.105824062744464]}, "properties": {"assetType": "bridge", "title": null, "structureId": ""}}, {"geometry": {"coordinates": [32.51179843664531, 0.105061294799474]}, "properties": {"assetType": "bridge", "title": null, "structureId": ""}}, {"geometry": {"coordinates": [32.51265467428527, 0.10637951968312]}, "properties": {"assetType": "bridge", "title": null, "structureId": ""}}, {"geometry": {"coordinates": [32.51235971053139, 0.159583210764909]}, "properties": {"assetType": "bridge", "title": null, "structureId": ""}}, {"geometry": {"coordinates": [32.51339340799721, 0.164177804695517]}, "properties": {"assetType": "bridge", "title": null, "structureId": ""}}, {"geometry": {"coordinates": [32.51733195666897, 0.176213476667226]}, "properties": {"assetType": "bridge", "title": null, "structureId": ""}}, {"geometry": {"coordinates": [32.523461504131085, 0.184988103108041]}, "properties": {"assetType": "bridge", "title": null, "structureId": ""}}, {"geometry": {"coordinates": [32.52493680447417, 0.188286863915269]}, "properties": {"assetType": "bridge", "title": null, "structureId": ""}}, {"geometry": {"coordinates": [32.54202037270837, 0.212315101385199]}, "properties": {"assetType": "bridge", "title": null, "structureId": ""}}, {"geometry": {"coordinates": [32.52248479285999, 0.252570424160089]}, "properties": {"assetType": "bridge", "title": null, "structureId": ""}}, {"geometry": {"coordinates": [32.52291423119132, 0.247579055732393]}, "properties": {"assetType": "bridge", "title": null, "structureId": ""}}, {"geometry": {"coordinates": [32.523575027051926, 0.23248033161142]}, "properties": {"assetType": "bridge", "title": null, "structureId": ""}}, {"geometry": {"coordinates": [32.53119725965967, 0.215359151272378]}, "properties": {"assetType": "bridge", "title": null, "structureId": ""}}], "summary": {"assetCount": 483, "bridgeCount": 483, "culvertCount": 452, "regions": [{"label": "Northern", "count": 174}, {"label": "Eastern", "count": 89}, {"label": "Southern", "count": 75}, {"label": "NorthEastern", "count": 39}, {"label": "Western", "count": 38}, {"label": "Central", "count": 38}]}}, "spatialCatalog": {"entries": [{"name": "airports.geojson", "kind": "geojson", "themeLabel": "Aviation", "sourceLabel": "G: Drive repository (canonical)", "servedRelativePath": "data/airports.geojson"}, {"name": "bot_results.json", "kind": "json", "themeLabel": "Platform Data", "sourceLabel": "G: Drive repository (canonical)", "servedRelativePath": "data/bot_results.json"}, {"name": "bridge_works_2026.json", "kind": "json", "themeLabel": "Structures", "sourceLabel": "G: Drive repository (canonical)", "servedRelativePath": "data/bridge_works_2026.json"}, {"name": "bridges2025.geojson", "kind": "geojson", "themeLabel": "Structures", "sourceLabel": "G: Drive repository (canonical)", "servedRelativePath": "data/bridges2025.geojson"}, {"name": "bridges_summary.json", "kind": "json", "themeLabel": "Structures", "sourceLabel": "G: Drive repository (canonical)", "servedRelativePath": "data/bridges_summary.json"}, {"name": "central_network_db.json", "kind": "json", "themeLabel": "Road Network", "sourceLabel": "G: Drive repository (canonical)", "servedRelativePath": "data/central_network_db.json"}, {"name": "cross_section_analytics.json", "kind": "json", "themeLabel": "Platform Data", "sourceLabel": "G: Drive repository (canonical)", "servedRelativePath": "data/cross_section_analytics.json"}, {"name": "deterioration_summary.json", "kind": "json", "themeLabel": "Platform Data", "sourceLabel": "G: Drive repository (canonical)", "servedRelativePath": "data/deterioration_summary.json"}, {"name": "ferries.geojson", "kind": "geojson", "themeLabel": "Ferries", "sourceLabel": "G: Drive repository (canonical)", "servedRelativePath": "data/ferries.geojson"}, {"name": "ferry.geojson", "kind": "geojson", "themeLabel": "Ferries", "sourceLabel": "G: Drive repository (canonical)", "servedRelativePath": "data/ferry.geojson"}, {"name": "ferryroutes.geojson", "kind": "geojson", "themeLabel": "Ferries", "sourceLabel": "G: Drive repository (canonical)", "servedRelativePath": "data/ferryroutes.geojson"}, {"name": "gisnetwork18062025.geojson", "kind": "geojson", "themeLabel": "Road Network", "sourceLabel": "G: Drive repository (canonical)", "servedRelativePath": "data/gisnetwork18062025.geojson"}, {"name": "growth_factors_summary.json", "kind": "json", "themeLabel": "Platform Data", "sourceLabel": "G: Drive repository (canonical)", "servedRelativePath": "data/growth_factors_summary.json"}, {"name": "image_defects_summary.json", "kind": "json", "themeLabel": "Platform Data", "sourceLabel": "G: Drive repository (canonical)", "servedRelativePath": "data/image_defects_summary.json"}, {"name": "link_condition_lookup.json", "kind": "json", "themeLabel": "Platform Data", "sourceLabel": "G: Drive repository (canonical)", "servedRelativePath": "data/link_condition_lookup.json"}, {"name": "maintenance_programme.json", "kind": "json", "themeLabel": "Platform Data", "sourceLabel": "G: Drive repository (canonical)", "servedRelativePath": "data/maintenance_programme.json"}, {"name": "maintenance_stations.geojson", "kind": "geojson", "themeLabel": "Platform Data", "sourceLabel": "G: Drive repository (canonical)", "servedRelativePath": "data/maintenance_stations.geojson"}, {"name": "ml_model_metrics.json", "kind": "json", "themeLabel": "Platform Data", "sourceLabel": "G: Drive repository (canonical)", "servedRelativePath": "data/ml_model_metrics.json"}, {"name": "model_feature_importance.json", "kind": "json", "themeLabel": "Platform Data", "sourceLabel": "G: Drive repository (canonical)", "servedRelativePath": "data/model_feature_importance.json"}, {"name": "ndpiv2026.geojson", "kind": "geojson", "themeLabel": "Platform Data", "sourceLabel": "G: Drive repository (canonical)", "servedRelativePath": "data/ndpiv2026.geojson"}, {"name": "network_links.json", "kind": "json", "themeLabel": "Road Network", "sourceLabel": "G: Drive repository (canonical)", "servedRelativePath": "data/network_links.json"}, {"name": "network_stats.json", "kind": "json", "themeLabel": "Road Network", "sourceLabel": "G: Drive repository (canonical)", "servedRelativePath": "data/network_stats.json"}, {"name": "network_summary.json", "kind": "json", "themeLabel": "Road Network", "sourceLabel": "G: Drive repository (canonical)", "servedRelativePath": "data/network_summary.json"}, {"name": "new_weigh_bridges.geojson", "kind": "geojson", "themeLabel": "Structures", "sourceLabel": "G: Drive repository (canonical)", "servedRelativePath": "data/new_weigh_bridges.geojson"}, {"name": "oprc_ndpiv.json", "kind": "json", "themeLabel": "Platform Data", "sourceLabel": "G: Drive repository (canonical)", "servedRelativePath": "data/oprc_ndpiv.json"}, {"name": "overloading_summary.json", "kind": "json", "themeLabel": "Platform Data", "sourceLabel": "G: Drive repository (canonical)", "servedRelativePath": "data/overloading_summary.json"}, {"name": "pavement_images.json", "kind": "json", "themeLabel": "Platform Data", "sourceLabel": "G: Drive repository (canonical)", "servedRelativePath": "data/pavement_images.json"}, {"name": "protected_areas.geojson", "kind": "geojson", "themeLabel": "Platform Data", "sourceLabel": "G: Drive repository (canonical)", "servedRelativePath": "data/protected_areas.geojson"}, {"name": "rail_existing.geojson", "kind": "geojson", "themeLabel": "Railways", "sourceLabel": "G: Drive repository (canonical)", "servedRelativePath": "data/rail_existing.geojson"}, {"name": "rail_proposed_ea_sg_plan.geojson", "kind": "geojson", "themeLabel": "Railways", "sourceLabel": "G: Drive repository (canonical)", "servedRelativePath": "data/rail_proposed_ea_sg_plan.geojson"}, {"name": "road_surface.json", "kind": "json", "themeLabel": "Platform Data", "sourceLabel": "G: Drive repository (canonical)", "servedRelativePath": "data/road_surface.json"}, {"name": "romdas_calibration.json", "kind": "json", "themeLabel": "Condition Surveys", "sourceLabel": "G: Drive repository (canonical)", "servedRelativePath": "data/romdas_calibration.json"}, {"name": "romdas_predictions.json", "kind": "json", "themeLabel": "Condition Surveys", "sourceLabel": "G: Drive repository (canonical)", "servedRelativePath": "data/romdas_predictions.json"}, {"name": "romdas_sections_summary.json", "kind": "json", "themeLabel": "Condition Surveys", "sourceLabel": "G: Drive repository (canonical)", "servedRelativePath": "data/romdas_sections_summary.json"}, {"name": "romdas_survey_sections.geojson", "kind": "geojson", "themeLabel": "Condition Surveys", "sourceLabel": "G: Drive repository (canonical)", "servedRelativePath": "data/romdas_survey_sections.geojson"}, {"name": "tcs_stations.json", "kind": "json", "themeLabel": "Platform Data", "sourceLabel": "G: Drive repository (canonical)", "servedRelativePath": "data/tcs_stations.json"}, {"name": "traffic_predictions.geojson", "kind": "geojson", "themeLabel": "Traffic", "sourceLabel": "G: Drive repository (canonical)", "servedRelativePath": "data/traffic_predictions.geojson"}, {"name": "traffic_summary.json", "kind": "json", "themeLabel": "Traffic", "sourceLabel": "G: Drive repository (canonical)", "servedRelativePath": "data/traffic_summary.json"}, {"name": "ug_airfields.geojson", "kind": "geojson", "themeLabel": "Aviation", "sourceLabel": "G: Drive repository (canonical)", "servedRelativePath": "data/ug_airfields.geojson"}, {"name": "uganda_airports.geojson", "kind": "geojson", "themeLabel": "Aviation", "sourceLabel": "G: Drive repository (canonical)", "servedRelativePath": "data/uganda_airports.geojson"}, {"name": "uganda_ferries.geojson", "kind": "geojson", "themeLabel": "Ferries", "sourceLabel": "G: Drive repository (canonical)", "servedRelativePath": "data/uganda_ferries.geojson"}, {"name": "uganda_lakes.geojson", "kind": "geojson", "themeLabel": "Hydrology", "sourceLabel": "G: Drive repository (canonical)", "servedRelativePath": "data/uganda_lakes.geojson"}, {"name": "uganda_railways.geojson", "kind": "geojson", "themeLabel": "Railways", "sourceLabel": "G: Drive repository (canonical)", "servedRelativePath": "data/uganda_railways.geojson"}, {"name": "uganda_rivers.geojson", "kind": "geojson", "themeLabel": "Hydrology", "sourceLabel": "G: Drive repository (canonical)", "servedRelativePath": "data/uganda_rivers.geojson"}]}, "roadPublicReferences": {"paved_stock_timeline": [{"financial_year": "FY25-26", "stock_paved_roads_km": 6405.0, "percent_paved_network": 30.4, "ndp": "NDPIV"}]}}