id,name,structure_type,road_name,road_number,road_class,chainage_km,latitude,longitude,span_length_m,no_of_spans,no_of_lanes,no_of_piers,width_m,material,crossing_type,surface_type,year_built,condition_rating,last_inspection_date,district,region,maintenance_station,functional_class,river,overall_rating
BRG--,RWIZI BRIDGE,bridge,Mbarara(Bushenyi Junction) - Ntungamo,A002_Link08,A,264.0,-0.61817,30.644039,18.5,3,2,2,11.0,Prestressed Concrete,01,Bituminous,1970,2,2023-12-04,Mbarara,Southern,Mbarara,A,RIVER RWIZI,
BRG-B001,KIBIMBA,bridge,Kampala - Entebbe Expressway,M3_Link01,M,0,0.53546,33.89109,20.0,3,2,2,13.0,Steel Truss,01,Bituminous,2022,5,2023-07-07,Kampala,Central,Kampala,M,KIBIMBA RIVER,7
BRG-B002,MALABA,bridge,Kampala - Entebbe Expressway,M3_Link01,M,200.5,0.63782,34.26833,16.0,3,2,2,20.2,Steel Composite,01,Bituminous,2016,5,2024-01-03,Kampala,Central,Kampala,M,MALABA,7
BRG-B003,BUSEGA,bridge,Kampala - Entebbe Expressway,M3_Link01,M,0,0.301,32.510059,73,1,2,0,7.3,Steel Truss,Road over river,Bituminous,2018,4,2022-11-09,Kampala,Central,Kampala,M,,7
BRG-B004,KATONGA BRIDGE,bridge,Kampala - Entebbe Expressway,M3_Link01,M,0,0.30104,32.509979,22,1,2,0,7.3,Prestressed Concrete,Road over river,Bituminous,2018,5,2023-02-07,Kampala,Central,Kampala,M,,7
BRG-B005,RWIZI BRIDGE,bridge,Kampala - Entebbe Expressway,M3_Link01,M,264.0,-0.61817,30.644039,18.5,3,2,2,11.0,Prestressed Concrete,01,Bituminous,2018,4,2023-01-08,Kampala,Central,Kampala,M,RIVER RWIZI,6
BRG-B006,KAMIRA BRIDGE,bridge,Kampala - Entebbe Expressway,M3_Link01,M,325.596008300781,-0.92715,30.223,42.0,1,2,0,8.0,Masonry,01,Bituminous,2018,5,2024-02-02,Kampala,Central,Kampala,M,KAMIRA RIVER,7
BRG-B007,RUBANGA BRIDGE,bridge,Ntungamo - Rubaale,A002_Link09,A,325.600006103516,-0.95836,30.20702,31.3,1,2,0,8.0,Steel Girder,01,Bituminous,1970,1,2024-02-02,Kabale,Southern,Kabale,A,RUBANGA RIVER,6
BRG-B008,KATINADA BRIDGE,bridge,Kampala - Entebbe Expressway,M3_Link01,M,340.557006835938,-1.03785,30.18478,14.0,1,2,0,11.0,Reinforced Concrete,01,Bituminous,2018,5,2022-07-12,Kampala,Central,Kampala,M,KEMYENDA RIVER,6
BRG-B009,Rubaale - Muhanga - Kabale,bridge,Kampala - Entebbe Expressway,M3_Link01,M,391.0,-1.26244,30.028669,21.0,1,2,0,10.8,Steel Girder,01,Bituminous,2018,5,2023-10-05,Kampala,Central,Kampala,M,KYANAMIRA,6
BRG-B00Z,Bumuli overbridge 2,bridge,Kampala - Entebbe Expressway,M3_Link01,M,0,0.176,32.5173,40,1,2,0,7.3,Steel Truss,Road over river,Bituminous,2018,4,2023-09-05,Kampala,Central,Kampala,M,,7
BRG-B00Z-11,Bumuli overbridge 2,bridge,Njeru - Jinja (Dual Section),A001N1_Link01,A,0,0.43834,33.186661,64,1,2,0,7.3,Reinforced Concrete,Road over river,Bituminous,1960,2,2024-05-02,Kampala,Central,Kampala,A,,7
BRG-B010,KEE B7 Overbridge,bridge,Kampala - Entebbe Expressway,M3_Link01,M,0,0.2596,32.5215,22,1,2,0,7.3,Masonry,Road over river,Bituminous,2018,5,2024-03-03,Kampala,Central,Kampala,M,,7
BRG-B010-13,Sisa Bridge underpass,bridge,Kampala - Entebbe Expressway,M3_Link01,M,0,0.1594,32.5124,21,1,2,0,7.3,Timber,Road over river,Bituminous,2018,5,2023-03-09,Kampala,Central,Kampala,M,,7
BRG-B010-14,Mwanyare,bridge,Kabale - Katuna,A002_Link11,A,0,-1.42476,30.01174,48,1,2,0,7.3,Masonry,Road over river,Bituminous,1957,1,2024-05-02,Kabale,Southern,Kabale,A,,5
BRG-B011,KEE B8 overbridge,bridge,Kampala - Entebbe Expressway,M3_Link01,M,0,0.2525,32.5224,27,1,2,0,7.3,Prestressed Concrete,Road over river,Bituminous,2018,4,2022-12-09,Kampala,Central,Kampala,M,,6
BRG-B011-16,19+580 Over-bridge,bridge,Kampala - Entebbe Expressway,M3_Link01,M,0,0.1485,32.5107,23,1,2,0,7.3,Steel Composite,Road over river,Bituminous,2018,5,2023-06-07,Kampala,Central,Kampala,M,,7
BRG-B011-17,BUKOOLA,bridge,Kyotera - Mutukula,A004_Link02,A,0,0.84316,31.4886,55,1,2,0,7.3,Steel Girder,Road over river,Bituminous,2004,4,2023-02-07,Masaka,Central,Masaka,A,,6
BRG-B012,KEE B9 overbridge,bridge,Kampala - Entebbe Expressway,M3_Link01,M,0,0.2324,32.5235,38,1,2,0,7.3,Reinforced Concrete,Road over river,Bituminous,2018,5,2023-05-08,Kampala,Central,Kampala,M,,4
BRG-B012-19,Ziiru overbridge,bridge,Kampala - Entebbe Expressway,M3_Link01,M,0,0.1452,32.5104,15,1,2,0,7.3,Reinforced Concrete,Road over river,Bituminous,2018,4,2023-04-08,Kampala,Central,Kampala,M,,4
BRG-B012-20,BUYALA,bridge,Busega - Bujuuko,A005_Link01,A,0,0.32933,32.41803,19,1,2,0,7.3,Steel Composite,Road over river,Bituminous,2012,5,2023-05-08,Mpigi,Central,Mpigi,A,,6
BRG-B013,Kajjansi interchange KEE B10,bridge,Kampala - Entebbe Expressway,M3_Link01,M,0,0.2153,32.5313,78,1,2,0,7.3,Timber,Road over river,Bituminous,2018,5,2022-07-12,Kampala,Central,Kampala,M,,7
BRG-B013-22,Ziiru overbridge 2,bridge,Kampala - Entebbe Expressway,M3_Link01,M,0,0.1358,32.5104,64,1,2,0,7.3,Steel Girder,Road over river,Bituminous,2018,4,2023-08-06,Kampala,Central,Kampala,M,,7
BRG-B013-23,Mpanga,bridge,Kyenjojo - Rugombe - Fortportal,A005_Link10,A,33.0200004577637,0.64335,30.39365,9.0,3,2,2,10.3,Prestressed Concrete,01,Bituminous,1989,3,2023-06-07,Fort Portal,Western,Fort Portal,A,Mpanga,7
BRG-B014,Kajjansi interchange KEE B11,bridge,Kampala - Entebbe Expressway,M3_Link01,M,0,0.2153,32.5313,76,1,2,0,7.3,Reinforced Concrete,Road over river,Bituminous,2018,5,2022-11-09,Kampala,Central,Kampala,M,,6
BRG-B014-25,Nambigirwa Bridge 1,bridge,Kampala - Entebbe Expressway,M3_Link01,M,0,0.1266,32.5114,15,1,2,0,7.3,Steel Composite,Road over river,Bituminous,2018,5,2024-05-02,Kampala,Central,Kampala,M,,6
BRG-B014-26,Mpanga,bridge,Fortportal - Kijura - Kabende Bridge-Sogahe-Kyarusozi,C542_Link01,C,0,0.660422,30.296738,39,1,2,0,7.3,Steel Composite,Road over river,Unsealed,0,4,2023-01-08,Fort Portal,Western,Fort Portal,C,,5
BRG-B015,Kajjansi overbridge 1 KEE B11,bridge,Kampala - Entebbe Expressway,M3_Link01,M,0,0.2087,32.5295,62,1,2,0,7.3,Masonry,Road over river,Bituminous,2018,5,2023-12-04,Kampala,Central,Kampala,M,,5
BRG-B015-28,Nambigirwa Bridge 2,bridge,Kibuku - Nyabushozi,C575_Link01,C,0,0.1266,32.5114,71,1,2,0,7.3,Steel Composite,Road over river,Unsealed,0,4,2024-02-02,Fort Portal,Western,Fort Portal,C,,5
BRG-B015-29,Mpanga,bridge,Kyenjojo - Rugombe - Fortportal,A005_Link10,A,49.6399993896484,0.6569,30.278099,7.5,2,2,1,7.8,Steel Composite,01,Bituminous,1989,4,2023-03-09,Fort Portal,Western,Fort Portal,A,Mpanga River,5
BRG-B016,Kajjansi overbridge 2 KEE B12,bridge,Kalongo - Kitgum Matidi,C677_Link02,C,0,0.2053,32.5282,67,1,2,0,7.3,Steel Composite,Road over river,Unsealed,0,4,2023-11-04,Kitgum,Northern,Kitgum,C,,7
BRG-B016-31,Mpalla 1,bridge,Kalongo - Kitgum Matidi,C677_Link02,C,0,0.1064,32.5126,68,1,2,0,7.3,Masonry,Road over river,Unsealed,0,3,2023-07-07,Kitgum,Northern,Kitgum,C,,7
BRG-B016-32,RWIMI,bridge,FortPortal - Rwimi(bridge),A005_Link11,A,45.5330009460449,0.37333,30.211411,15.7,1,2,0,7.8,Steel Girder,01,Bituminous,2007,5,2023-10-05,Fort Portal,Western,Fort Portal,A,RWIMI,7
BRG-B017,Kajjansi overbridge 3 KEE 13,bridge,Kalongo - Kitgum Matidi,C677_Link02,C,0,0.1974,32.5262,51,1,2,0,7.3,Steel Girder,Road over river,Unsealed,0,3,2023-11-04,Kitgum,Northern,Kitgum,C,,4
BRG-B017-34,Mpalla 2,bridge,Lokitanyara-Loro-Amudat,C963_Link02,C,0,0.1058,32.5123,78,1,2,0,7.3,Timber,Road over river,Unsealed,0,2,2023-06-07,Moroto,North Eastern,Moroto,C,,4
BRG-B017-35,Nsonja,bridge,Rwimi-Dura-Kamwenge,C547_Link01,C,46.0999984741211,-0.349995,30.27809,15.4,1,2,0,8.3,Steel Composite,01,Unsealed,0,2,2024-04-02,Fort Portal,Western,Fort Portal,C,,4
BRG-B018,Bumuli overbridge,bridge,Amudat-Alakasi-Kalita,C963_Link03,C,0,0.1849,32.5234,74,1,2,0,7.3,Reinforced Concrete,Road over river,Unsealed,0,4,2023-08-06,Moroto,North Eastern,Moroto,C,,6
BRG-B018-37,Mpalla 3,bridge,Toroma-Magoro,C964_Link02,C,0,0.105,32.5118,69,1,2,0,7.3,Steel Truss,Road over river,Unsealed,0,3,2023-04-08,Soroti,North Eastern,Soroti,C,,6
BRG-B018-38,MUBUKU BRIDGE,bridge,Mubuku - Kasese,A005_Link13,A,346.190002441406,-0.2614,30.120991,15.4,2,2,1,10.0,Timber,01,Bituminous,2007,3,2023-02-07,Kasese,Southern,Kasese,A,MUBUKU RIVER,6
BRG-B019,MUBUKU,bridge,Kokeris - Lopei,C967_Link01,C,347.779998779297,0.25201,30.11684,14.4,1,2,0,9.9,Prestressed Concrete,01,Unsealed,0,2,2024-05-02,Moroto,North Eastern,Moroto,C,RIVER MUBUKU,5
BRG-B019-40,Lopei Irish Crossing,bridge,Ariamoi - Kaladonapal - Kaperimoru,B301_Link01,B,0,2.57954,34.333321,26,1,2,0,7.3,Masonry,Road over river,Unsealed,0,4,2023-03-09,Kotido,North Eastern,Kotido,B,,5
BRG-B020,NYAMWAMBA BRIDGE,bridge,Mubuku - Kasese,A005_Link13,A,354.329986572266,-0.19445,30.105,18.5,1,2,0,10.3,Steel Composite,01,Bituminous,2007,5,2023-01-08,Kasese,Southern,Kasese,A,NYAMWAMBA RIVER,7
BRG-B020-42,Lopei Irish Crossing,bridge,Ariamoi - Kaladonapal - Kaperimoru,B301_Link01,B,0,2.572684,34.341084,27,1,2,0,7.3,Reinforced Concrete,Road over river,Unsealed,0,2,2023-12-04,Kotido,North Eastern,Kotido,B,,7
BRG-B021,KASEIGA,bridge,Kampala - Entebbe Expressway,M3_Link01,M,357.630004882813,-0.1735,30.0863,6.8,2,2,1,9.9,Timber,01,Bituminous,2018,5,2023-08-06,Kampala,Central,Kampala,M,NYAMWAMBA,7
BRG-B021-44,Iriri MPCs,bridge,Iriri - Akisim (Lorengechora) - Ariamoi - Nadunget,B303_Link03,B,0,2.09746,34.22258,63,1,2,0,7.3,Reinforced Concrete,Road over river,Bituminous,2019,4,2023-02-07,Moroto,North Eastern,Moroto,B,,7
BRG-B022,MPONDWE BRIDGE,bridge,Kampala - Entebbe Expressway,M3_Link01,M,417.799987792969,-0.041108,29.720169,21.2,1,2,0,10.0,Reinforced Concrete,01,Bituminous,2018,4,2022-09-10,Kampala,Central,Kampala,M,RUBIRIHA RIVER,7
BRG-B022-46,Bunamubi Bridge,bridge,Bubulo-Bududa Circle road,C867_Link02,C,0,1.0276,34.371941,28,1,2,0,7.3,Steel Girder,Road over river,Unsealed,0,2,2023-10-05,Mbale,Eastern,Mbale,C,,7
BRG-B023,KAFU BRIDGE,bridge,Nakasongola - Kafu,A006_Link06,A,0,1.54265,32.041771,23,1,2,0,7.3,Reinforced Concrete,Road over river,Bituminous,1962,1,2024-01-03,Luwero,Central,Luwero,A,,7
BRG-B023-48,Dopeth Irish Crossing,bridge,Kibuku - Nyabushozi,C575_Link01,C,0,3.01139,34.02877,21,1,2,0,7.3,Timber,Road over river,Unsealed,0,3,2023-07-07,Fort Portal,Western,Fort Portal,C,,7
BRG-B024,Agago Irish Crossing,bridge,Kalongo - Kitgum Matidi,C677_Link02,C,0,2.72239,33.547661,15,1,2,0,7.3,Timber,Road over river,Unsealed,0,3,2024-03-03,Kitgum,Northern,Kitgum,C,,7
BRG-B025,KARUMA BRIDGE,bridge,Kalongo - Kitgum Matidi,C677_Link02,C,254.399993896484,2.242707,32.239796,28.7,3,2,2,8.3,Prestressed Concrete,01,Unsealed,0,2,2023-06-07,Kitgum,Northern,Kitgum,C,WHITE NILE,6
BRG-B025-51,Kitekena,bridge,Lokitanyara-Loro-Amudat,C963_Link02,C,0,0.322528,30.101757,59,1,2,0,7.3,Steel Composite,Road over river,Unsealed,0,3,2023-06-07,Moroto,North Eastern,Moroto,C,,6
BRG-B026,MAGODES,bridge,Amudat-Alakasi-Kalita,C963_Link03,C,4.0,0.82749,34.17004,7.0,1,2,0,9.5,Steel Truss,01,Unsealed,0,4,2022-09-10,Moroto,North Eastern,Moroto,C,,7
BRG-B026-53,Manafwa,bridge,Toroma-Magoro,C964_Link02,C,0,0.939423,34.158741,75,1,2,0,7.3,Timber,Road over river,Unsealed,0,3,2023-02-07,Soroti,North Eastern,Soroti,C,,7
BRG-B028,NAMATALA,bridge,Kokeris - Lopei,C967_Link01,C,48.0,1.10874,34.172459,9.5,1,2,0,6.5,Timber,01,Unsealed,0,3,2023-03-09,Moroto,North Eastern,Moroto,C,NAMATALA,7
BRG-B028-55,Kabobo - MPCs,bridge,Kafunzo-Kikagati,C419_Link01,C,0,-0.98259,30.50481,63,1,2,0,7.3,Steel Composite,Road over river,Unsealed,0,2,2023-08-06,Mbarara,Southern,Mbarara,C,,7
BRG-B029,FIKA-SALAAMA,bridge,Mbale - Namunsi - Kumi,A007_Link04,A,48.0,1.1647,34.15733,4.2,1,2,0,8.4,Prestressed Concrete,01,Bituminous,1970,2,2024-03-03,Mbale,Eastern,Mbale,A,LWERE,7
BRG-B029-57,Nyabisheke - MPCS,bridge,Muzizi-Buremba,C357_Link01,C,0,0.096188,30.660252,17,1,2,0,7.3,Steel Composite,Road over river,Unsealed,0,4,2022-11-09,Ibanda,Southern,Ibanda,C,,7
BRG-B030,AWOJA,bridge,Kampala - Entebbe Expressway,M3_Link01,M,102.5,1.66698,33.7374,20.0,3,2,2,10.6,Steel Girder,01,Bituminous,2018,5,2022-07-12,Kampala,Central,Kampala,M,AWOJA,7
BRG-B030-59,Ekyambu - MPCC,bridge,Ibanda-Kanoni-Kazo,C356_Link01,C,0,-0.13323,30.531191,51,1,2,0,7.3,Reinforced Concrete,Road over river,Bituminous,2014,4,2024-03-03,Ibanda,Southern,Ibanda,C,,7
BRG-B031,TOCHI BRIDGE,bridge,Kampala - Entebbe Expressway,M3_Link01,M,339.330993652344,2.22715,32.341961,31.2,1,2,0,9.8,Reinforced Concrete,01,Bituminous,2018,5,2023-04-08,Kampala,Central,Kampala,M,TOCHI RIVER,4
BRG-B031-61,Nakironget Irish Crossing,bridge,Kampala - Entebbe Expressway,M3_Link01,M,0,1.86152,34.584389,53,1,2,0,7.3,Steel Truss,Road over river,Bituminous,2018,5,2023-10-05,Kampala,Central,Kampala,M,,6
BRG-B032,ALBERT NILE BRIDGE,bridge,Kampala - Entebbe Expressway,M3_Link01,M,106.198997497559,2.459358,31.507437,80.6,3,2,2,11.0,Reinforced Concrete,01,Bituminous,2018,5,2022-11-09,Kampala,Central,Kampala,M,ALBERT NILE,7
BRG-B032-63,Lolachat Irish Crossing/Splash,bridge,Kampala - Entebbe Expressway,M3_Link01,M,0,1.92604,34.561699,63,1,2,0,7.3,Prestressed Concrete,Road over river,Bituminous,2018,5,2023-05-08,Kampala,Central,Kampala,M,,7
BRG-B033,ACHWERA BRIDGE,bridge,Packwach - Nebbi,A008_Link03,A,147.100006103516,2.482735,31.172573,16.5,1,2,0,9.9,Timber,01,Bituminous,2004,4,2023-02-07,Arua,Northern,Arua,A,ACHWERA,7
BRG-B033-65,Nabilatuk Irish Crossing,bridge,Angatun-Nabilatuk-Lokapel,C960_Link01,C,0,2.05974,34.57732,75,1,2,0,7.3,Steel Truss,Road over river,Unsealed,0,2,2023-12-04,Moroto,North Eastern,Moroto,C,,7
BRG-B034,AKABA BRIDGE,bridge,Packwach - Nebbi,A008_Link03,A,150.100006103516,2.490772,31.141695,11.5,1,2,0,9.9,Timber,01,Bituminous,2004,3,2024-02-02,Arua,Northern,Arua,A,AKABA RIVER,6
BRG-B035,NYARWODHO BRIDGE,bridge,Packwach - Nebbi,A008_Link03,A,152.199996948242,2.49496,31.128204,11.5,1,1,0,9.9,Reinforced Concrete,01,Bituminous,2004,3,2023-07-07,Arua,Northern,Arua,A,NYARWODHO,7
BRG-B036,NAMTHIN BRIDGE,bridge,Nebbi - Eruba,A008_Link04,A,163.699996948242,2.511596,31.090334,16.4,1,2,0,9.9,Timber,01,Bituminous,2003,5,2024-02-02,Arua,Northern,Arua,A,NAMTHIN RIVER,7
BRG-B037,ORA BRIDGE,bridge,Nebbi - Eruba,A008_Link04,A,181.800003051758,2.656083,31.140558,44.3,1,2,0,9.7,Steel Girder,01,Bituminous,2003,3,2023-10-05,Arua,Northern,Arua,A,ORA RIVER,6
BRG-B038,AGUYI BRIDGE,bridge,Nebbi - Eruba,A008_Link04,A,208.0,2.829575,30.995136,16.5,1,2,0,9.9,Prestressed Concrete,01,Bituminous,2003,3,2024-02-02,Arua,Northern,Arua,A,AGUYI RIVER,7
BRG-B039,OZUVA BRIDGE,bridge,Nebbi - Eruba,A008_Link04,A,212.100006103516,2.867597,30.984146,9.4,1,2,0,9.8,Steel Truss,01,Bituminous,2003,3,2023-12-04,Arua,Northern,Arua,A,OZUVA,7
BRG-B040,WIKI BRIDGE,bridge,Nebbi - Eruba,A008_Link04,A,214.100006103516,2.879874,30.9809,16.5,1,2,0,9.9,Steel Girder,01,Bituminous,2003,4,2022-09-10,Arua,Northern,Arua,A,WIKI,7
BRG-B041,KAYIRILA BRIDGE,bridge,Busunju - Kiboga - Lwamata,A009_Link03,A,0,0.8206,31.909081,57,1,2,0,7.3,Prestressed Concrete,Road over river,Bituminous,2007,3,2023-10-05,Kampala,Central,Kampala,A,,5
BRG-B042,MPOLOGOMA,bridge,Nakalama - Namutumba - Mpologoma bridge,A012_Link01,A,46.2999992370605,0.96719,33.737881,16.8,2,2,1,10.7,Timber,01,Bituminous,1996,3,2023-12-04,Jinja,Eastern,Jinja,A,MPOLOGOMA,7
BRG-B043,RUSHANGO-BRIDGE,bridge,Ibanda-Kanoni-Kazo,C356_Link01,C,25.7000007629395,0.08435,30.705971,31.6,1,2,0,11.4,Timber,01,Bituminous,2014,5,2022-11-09,Ibanda,Southern,Ibanda,C,RUSHANGO RIVER,7
BRG-B044,Mpanga - Bridge,bridge,Ibanda - Muziza - Kamwenge,B150_Link03,B,0,0.100761,30.461651,24,1,2,0,7.3,Reinforced Concrete,Road over river,Bituminous,2014,5,2023-06-07,Ibanda,Southern,Ibanda,B,,6
BRG-B047,KATUNGURU BRIDGE,bridge,Ishaka - Buhinda - Rugazi,B152_Link03,B,90.0,0.1251,30.04866,20.3,3,1,2,8.0,Masonry,01,Bituminous,1989,2,2023-09-05,Mbarara,Southern,Mbarara,B,KAZINGA CHANNEL,5
BRG-B048,MUZIZI,bridge,Kyenjojo - Katoke - R. Muzizi,B202_Link01,B,20.0699996948242,0.87107,30.729679,20.4,2,2,1,9.6,Steel Truss,01,Bituminous,2020,5,2023-09-05,Fort Portal,Western,Fort Portal,B,MUZIZI,7
BRG-B049,NKUSI,bridge,Kagadi - Mabale - Kabwoya,B202_Link03,B,31.8600006103516,1.12972,30.99474,21.1,1,2,0,11.1,Timber,01,Bituminous,2020,5,2022-11-09,Hoima,Western,Hoima,B,NKUSI,7
BRG-B050,RWERE,bridge,Namunsi - Sironko,B300_Link01,B,21.5,1.153,34.19989,7.0,1,2,0,7.8,Reinforced Concrete,01,Bituminous,1961,1,2024-02-02,Mbale,Eastern,Mbale,B,RWERE,7
BRG-B051,SIRONKO,bridge,Namunsi - Sironko,B300_Link01,B,0,1.23629,34.257061,20.0,1,2,0,10.0,Masonry,01,Bituminous,1961,1,2024-02-02,Mbale,Eastern,Mbale,B,SIRONKO,7
BRG-B052,NALUGUGU,bridge,Namunsi - Sironko,B300_Link01,B,21.7999992370605,1.24035,34.267288,7.0,1,2,0,10.8,Steel Composite,01,Bituminous,1961,1,2024-01-03,Mbale,Eastern,Mbale,B,NALUGUGU,7
BRG-B053,SIMU,bridge,Sironko - Muyembe,B300_Link02,B,22.0,1.29864,34.287251,10.0,1,2,0,10.0,Timber,01,Bituminous,1961,1,2024-03-03,Mbale,Eastern,Mbale,B,SIMU,5
BRG-B054,YEMBE,bridge,Muyembe - Namalu,B300_Link03,B,72.0999984741211,1.33472,34.296692,16.0,1,2,0,8.0,Steel Composite,01,Unsealed,0,2,2024-04-02,Mbale,Eastern,Mbale,B,YEMBE,7
BRG-B055,ATARI,bridge,Kapchorwa-Suam,B304_Link02,B,98.5999984741211,1.40724,34.482601,20.0,1,2,0,15.0,Steel Truss,01,Bituminous,2023,5,2023-06-07,Mbale,Eastern,Mbale,B,ATARI,7
BRG-B056,NGENGE,bridge,Kapchorwa-Suam,B304_Link02,B,7.0,1.40692,34.508049,16.0,1,2,0,15.0,Timber,01,Bituminous,2023,5,2024-05-02,Mbale,Eastern,Mbale,B,NGENGE,7
BRG-B057,EMJONG,bridge,Kapchorwa-Suam,B304_Link02,B,7.0,1.41467,34.51548,18.0,1,2,0,15.0,Reinforced Concrete,01,Bituminous,2023,4,2023-06-07,Mbale,Eastern,Mbale,B,EMJONG,7
BRG-B058,Kanyago 2,bridge,Kanyago Bridge - Kumi,B305_Link03,B,0,1.414941,33.921436,53,1,2,0,7.3,Prestressed Concrete,Road over river,Bituminous,2021,5,2023-03-09,Soroti,North Eastern,Soroti,B,,6
BRG-B060,KANYAGO,bridge,Kanyago Bridge - Kumi,B305_Link03,B,0,1.26842,33.872719,26,1,2,0,7.3,Reinforced Concrete,Road over river,Bituminous,2021,5,2023-08-06,Soroti,North Eastern,Soroti,B,,4
BRG-B061,BUYANJA,bridge,Lyantonde - Lumbugu,C214_Link01,C,0,0.46901,31.19845,79,1,2,0,7.3,Steel Composite,Road over river,Unsealed,0,3,2024-02-02,Masaka,Central,Masaka,C,,4
BRG-B062,KIBALE BRIDGE,bridge,Isingiro-Kityanza,C351_Link01,C,22.2029991149902,0.77879,31.346729,21.9,1,1,0,5.0,Steel Composite,01,Unsealed,0,3,2023-08-06,Mbarara,Southern,Mbarara,C,KIBAL RIVER,5
BRG-B067,KAHENGE BRIDGE,bridge,Kagamba-Kebisoni,C410_Link01,C,14.1000003814697,-0.83153,30.05032,15.8,1,2,0,7.9,Steel Girder,01,Bituminous,2005,5,2022-09-10,Kabale,Southern,Kabale,C,KAHENGE,7
BRG-B068,MINERA 01,bridge,Muhanga-Kisiizi-Kebisoni,C411_Link01,C,53.4000015258789,-0.90601,30.011499,10.6,1,1,0,4.7,Masonry,01,Unsealed,0,3,2023-12-04,Kabale,Southern,Kabale,C,RIVER MINERA,5
BRG-B069,MINERA 02,bridge,Muhanga-Kisiizi-Kebisoni,C411_Link01,C,53.4300003051758,-0.905775,30.011419,6.3,2,1,1,5.0,Prestressed Concrete,01,Unsealed,0,4,2024-04-02,Kabale,Southern,Kabale,C,RIVER MINERA,6
BRG-B070,NYAMWIRU BRIDGE,bridge,Katunguru - Ishasha,C414_Link01,C,17.0,-0.313053,29.870918,6.2,3,1,2,9.9,Steel Girder,01,Unsealed,0,2,2024-03-03,Kasese,Southern,Kasese,C,NYAMWIRU RIVER,7
BRG-B071,RWEMPUNU BRIDGE,bridge,Katunguru - Ishasha,C414_Link01,C,37.2000007629395,-0.383601,29.876026,6.2,4,2,3,9.9,Timber,01,Unsealed,0,4,2024-01-03,Kasese,Southern,Kasese,C,RWEMPUNU RIVER,7
BRG-B072,KAIZI BRIDGE,bridge,Katunguru - Ishasha,C414_Link01,C,41.7000007629395,-0.42302,29.867781,6.2,4,2,3,9.9,Steel Composite,01,Unsealed,0,2,2023-12-04,Kasese,Southern,Kasese,C,KAIZI RIVER,7
BRG-B073,NCHWERA BRIDGE,bridge,Katunguru - Ishasha,C414_Link01,C,50.2000007629395,-0.45831,29.8015,30.7,1,1,2,8.6,Prestressed Concrete,01,Unsealed,0,3,2023-07-07,Kasese,Southern,Kasese,C,NSHWERA RIVER,5
BRG-B074,NTUNGWE BRIDGE,bridge,Katunguru - Ishasha,C414_Link01,C,66.5999984741211,-0.57484,29.72377,45.6,1,2,0,10.0,Steel Composite,01,Unsealed,0,2,2023-11-04,Kasese,Southern,Kasese,C,NTUNGWE RIVER,6
BRG-B075,ISHASHA BRIDGE,bridge,Katunguru - Ishasha,C414_Link01,C,86.3000030517578,-0.727353,29.628202,12.2,3,2,2,8.0,Steel Composite,01,Unsealed,0,3,2023-12-04,Kasese,Southern,Kasese,C,ISHASHA RIVER,3
BRG-B076,NYAMUKAMBU BRIDGE,bridge,Bihanga - Bwizibwera,C415_Link02,C,22.1299991607666,0.43451,30.46027,13.5,1,1,0,3.3,Prestressed Concrete,01,Unsealed,0,3,2023-10-05,Ibanda,Southern,Ibanda,C,NYAKAMBUGU SWAMP,2
BRG-B077,KAMIIRA BRIDGE,bridge,Bihanga - Nsiika,C416_Link01,C,13.1999998092651,0.3745,30.424589,13.0,1,2,0,4.4,Steel Truss,01,Unsealed,0,3,2023-06-07,Ibanda,Southern,Ibanda,C,KAMIIRA STREAM,5
BRG-B078,MIRAMA 01,bridge,Kafunzo-Kakitumba,C417_Link03,C,29.7070007324219,-1.05192,30.458719,21.7,1,1,0,12.2,Steel Composite,01,Bituminous,2017,4,2023-10-05,Kabale,Southern,Kabale,C,RIVER KAGERA,7
BRG-B079,KATENGURE BRIDGE,bridge,Kakukuru - Rubale,C418_Link01,C,9.14000034332275,-0.990536,30.219315,8.3,1,1,0,4.5,Prestressed Concrete,01,Unsealed,0,2,2024-03-03,Kabale,Southern,Kabale,C,KATENGURE RIVER,4
BRG-B080,MUBUKU BRIDGE,bridge,Mubuku-Maliba-Nyakalingijo,C510_Link01,C,10.6999998092651,-0.33364,30.07723,19.0,1,1,0,5.4,Masonry,01,Unsealed,0,3,2023-10-05,Kasese,Southern,Kasese,C,MUBUKU RIVER,2
BRG-B081,KILEMBE  BRIDGE,bridge,Kasese - Kilembe mines,C511_Link01,C,10.1999998092651,-0.197898,30.012709,20.0,1,2,0,10.1,Reinforced Concrete,01,Bituminous,2007,3,2024-03-03,Kasese,Southern,Kasese,C,RIVER NYAMWAMBA,7
BRG-B082,KANYAMPALA BRIDGE,bridge,Kinyamaseke-Kisinga,C513_Link01,C,6.30000019073486,-0.04609,29.857031,15.2,1,1,0,4.0,Reinforced Concrete,01,Unsealed,0,3,2023-01-08,Kasese,Southern,Kasese,C,KANYAMPALA,5
BRG-B085,NYAMUGASANI BRIDGE,bridge,Katojo-Katwe-Rwentale,C516_Link01,C,14.3000001907349,-0.12346,29.84318,8.4,3,1,2,3.8,Timber,01,Unsealed,0,2,2023-10-05,Kasese,Southern,Kasese,C,NAMUSAGANI,5
BRG-B087,WASSA,bridge,Karugutu - Ntoroko,C541_Link01,C,24.0599994659424,0.93501,30.363371,19.8,1,1,0,3.1,Timber,01,Unsealed,0,4,2022-08-11,Fort Portal,Western,Fort Portal,C,WASSA,7
BRG-B088,SOGOHA,bridge,Fortportal - Kijura - Kabende Bridge-Sogahe-Kyarusozi,C542_Link01,C,40.2849998474121,0.88128,30.49469,15.0,2,2,1,4.9,Steel Truss,01,Unsealed,0,4,2024-01-03,Fort Portal,Western,Fort Portal,C,SOGOHA,7
BRG-B089,WAIGA,bridge,Bukumi-Bulisa,C623_Link01,C,25.3500003814697,1.99229,31.475267,19.2,2,2,1,14.5,Steel Girder,01,Bituminous,2022,5,2023-05-08,Masindi,Western,Masindi,C,WAIGA,7
BRG-B090,WAIGA,bridge,Kisanja-Park junction,C625_Link01,C,41.1599998474121,2.05924,31.71674,36.0,1,2,0,10.0,Timber,01,Bituminous,2022,4,2023-10-05,Masindi,Western,Masindi,C,WAIGA,7
BRG-B091,WARINGO,bridge,Kisanja-Park junction,C625_Link01,C,45.5299987792969,2.09726,31.71604,18.0,1,2,0,10.0,Steel Girder,01,Bituminous,2022,5,2022-12-09,Masindi,Western,Masindi,C,WARINGO,7
BRG-B092,ZOLEYA,bridge,Kisanja-Park junction,C625_Link01,C,51.810001373291,2.14857,31.7062,36.0,1,2,0,10.0,Masonry,01,Bituminous,2022,5,2022-06-12,Masindi,Western,Masindi,C,ZOLIYA,7
BRG-B093,SAMBIYA,bridge,Kisanja-Park junction,C625_Link01,C,55.3600006103516,2.17821,31.697069,5.2,1,2,0,10.0,Timber,01,Bituminous,2022,5,2023-12-04,Masindi,Western,Masindi,C,SAMBIYA,7
BRG-B094,ATURUKURU,bridge,Tororo-Nagongera,C832_Link01,C,2.29999995231628,0.70289,34.158821,6.5,1,2,0,8.5,Masonry,01,Unsealed,0,2,2024-04-02,Tororo,Eastern,Tororo,C,RUBONGE,6
BRG-B095,PAKAMU,bridge,Tororo-Nagongera,C832_Link01,C,33.5,0.72214,34.118549,3.2,1,1,0,5.0,Steel Composite,01,Unsealed,0,2,2024-02-02,Tororo,Eastern,Tororo,C,PAKAMU,6
BRG-B096,MAHANGA,bridge,Tororo-Nagongera,C832_Link01,C,33.5,0.76043,34.042061,5.8,1,1,0,5.0,Steel Girder,01,Unsealed,0,3,2023-03-09,Tororo,Eastern,Tororo,C,MAHANGA,5
BRG-B097,NAKULUMUTU,bridge,Nabumali junction-Busolwe,C833_Link01,C,34.5,0.93139,33.996181,4.5,1,1,0,4.0,Steel Girder,01,Unsealed,0,3,2023-06-07,Tororo,Eastern,Tororo,C,NAKULUMUTU,5
BRG-B098,NKOLA,bridge,Nabumali junction-Busolwe,C833_Link01,C,34.5,0.9305,33.99501,7.5,1,1,0,3.6,Reinforced Concrete,01,Unsealed,0,3,2023-02-07,Tororo,Eastern,Tororo,C,MANAFA,5
BRG-B099,NAKWAZI,bridge,Nabumali junction-Busolwe,C833_Link01,C,34.5,0.85453,33.935452,5.0,1,1,0,4.6,Steel Truss,01,Unsealed,0,4,2023-06-07,Tororo,Eastern,Tororo,C,NAKWAZI,4
BRG-B100,BUDUMBBA,bridge,Busolwe-Budumba,C833_Link02,C,36.0,0.82721,33.789551,25.4,4,1,4,3.3,Reinforced Concrete,01,Unsealed,0,3,2023-11-04,Tororo,Eastern,Tororo,C,MPOLOGOMA,6
BRG-B101,MIWU,bridge,Nalugugu-Mutufu-Budadiri,C861_Link01,C,16.2000007629395,1.19068,34.318451,4.0,1,1,0,4.2,Steel Composite,01,Unsealed,0,4,2022-06-12,Mbale,Eastern,Mbale,C,MIWU,5
BRG-B102,SIRONKO,bridge,Nalugugu-Mutufu-Budadiri,C861_Link01,C,16.0,1.18582,34.32291,20.0,1,2,0,8.0,Masonry,01,Unsealed,0,3,2023-10-05,Mbale,Eastern,Mbale,C,,6
BRG-B103,KADO,bridge,Namagumba - Budadiri,C862_Link01,C,18.3999996185303,1.16501,34.343941,7.0,1,2,0,9.1,Masonry,01,Unsealed,1997,5,2023-06-07,Mbale,Eastern,Mbale,C,KADO,7
BRG-B104,SONOLI,bridge,Namagumba - Budadiri,C862_Link01,C,18.3999996185303,1.1602,34.299999,6.5,1,2,0,7.8,Reinforced Concrete,01,Unsealed,0,3,2023-09-05,Mbale,Eastern,Mbale,C,SONOLI,6
BRG-B105,NAMATSU,bridge,Mbale - Nkokonjeru,C863_Link01,C,21.0,1.07785,34.18692,7.0,1,2,0,9.5,Steel Truss,01,Unsealed,0,4,2022-06-12,Mbale,Eastern,Mbale,C,NAMATSU,5
BRG-B106,KIGEZI,bridge,Mbale - Nkokonjeru,C863_Link01,C,21.0,1.06059,34.241241,5.0,1,1,0,4.5,Timber,01,Unsealed,0,3,2024-01-03,Mbale,Eastern,Mbale,C,,6
BRG-B107,NAMIKHOMA,bridge,Munamba - Lwakhakha,C866_Link01,C,4.5,0.81193,34.874741,12.0,1,2,0,11.6,Steel Girder,01,Bituminous,2020,5,2023-02-07,Tororo,Eastern,Tororo,C,NAMIKHOMA,7
BRG-B108,PASA,bridge,Bubulo-Bududa Circle road,C867_Link02,C,28.3999996185303,0.95722,34.285881,8.0,1,2,0,8.0,Steel Truss,01,Unsealed,0,4,2023-04-08,Mbale,Eastern,Mbale,C,PASA,4
BRG-B109,TSUTSU,bridge,Bubulo-Bududa Circle road,C867_Link02,C,28.3999996185303,0.99758,34.33168,8.0,1,2,0,7.8,Steel Truss,01,Unsealed,0,2,2023-09-05,Mbale,Eastern,Mbale,C,TSUTSU,3
BRG-B110,Manafa,bridge,Bubulo-Bududa Circle road,C867_Link02,C,0,1.00816,34.369579,52,1,2,0,7.3,Steel Truss,Road over river,Unsealed,0,4,2024-02-02,Mbale,Eastern,Mbale,C,,5
BRG-B111,Manafwa,bridge,Kibuku - Nyabushozi,C575_Link01,C,0,1.003715,34.361641,34,1,2,0,7.3,Masonry,Road over river,Unsealed,0,2,2023-12-04,Fort Portal,Western,Fort Portal,C,,7
BRG-B112,MANAFA,bridge,Kalongo - Kitgum Matidi,C677_Link02,C,15.6000003814697,0.94066,34.280281,12.0,2,2,1,11.6,Masonry,01,Unsealed,0,4,2022-12-09,Kitgum,Northern,Kitgum,C,MANAFA,7
BRG-B113,NAMUNYIRI,bridge,Kalongo - Kitgum Matidi,C677_Link02,C,16.0,0.81437,34.34417,12.0,1,2,0,11.6,Steel Composite,01,Unsealed,0,4,2022-06-12,Kitgum,Northern,Kitgum,C,NAMUNYIRI,7
BRG-B114,MBIGI,bridge,Kalongo - Kitgum Matidi,C677_Link02,C,9.80000019073486,1.308,34.328812,16.0,1,2,0,8.0,Masonry,01,Unsealed,0,4,2022-12-09,Kitgum,Northern,Kitgum,C,YEMBE,7
BRG-B115,KUMI,bridge,Lokitanyara-Loro-Amudat,C963_Link02,C,45.5,1.46854,33.699699,7.9,4,2,3,4.3,Steel Girder,01,Unsealed,0,3,2024-04-02,Moroto,North Eastern,Moroto,C,AMOKOKA,7
BRG-B116,ABUKET,bridge,Amudat-Alakasi-Kalita,C963_Link03,C,45.5,1.45332,33.654381,8.0,3,2,2,7.4,Timber,01,Unsealed,0,3,2024-05-02,Moroto,North Eastern,Moroto,C,ABUKET,7
BRG-B117,TOCHI BRIDGE,bridge,Toroma-Magoro,C964_Link02,C,297.382995605469,2.624604,32.33297,18.9,1,2,0,9.8,Prestressed Concrete,01,Unsealed,0,2,2023-11-04,Soroti,North Eastern,Soroti,C,TOCHI RIVER,5
BRG-B118,Unyama,bridge,Kokeris - Lopei,C967_Link01,C,0,3.569871,32.072166,56,1,2,0,7.3,Masonry,Road over river,Unsealed,0,2,2023-07-07,Moroto,North Eastern,Moroto,C,,2
BRG-B119,ENYAU BRIDGE,bridge,Manibe - Maracha - Koboko,A008_Link06,A,246.399002075195,3.090026,30.905371,21.6,1,2,0,10.8,Steel Girder,01,Bituminous,2015,5,2024-04-02,Arua,Northern,Arua,A,ENYAU RIVER,6
BRG-B120,ENVE BRIDGE,bridge,Koboko - Oraba(Uganda/Sudan border),A008_Link07,A,253.800003051758,3.510684,30.910522,22.5,1,2,0,10.8,Steel Composite,01,Bituminous,2015,5,2023-01-08,Arua,Northern,Arua,A,ENVE RIVER,7
BRG-B120-143,ENVE,bridge,Manibe - Maracha - Koboko,A008_Link06,A,0,3.15209,30.90546,56,1,2,0,7.3,Masonry,Road over river,Bituminous,2015,5,2022-11-09,Arua,Northern,Arua,A,,7
BRG-B121,OLUFFE,bridge,Kampala - Entebbe Expressway,M3_Link01,M,260.0,3.188831,30.933994,22.0,1,2,0,10.7,Timber,01,Bituminous,2018,4,2022-09-10,Kampala,Central,Kampala,M,OLUFFE,7
BRG-B122,AYI BRIDGE,bridge,Manibe - Maracha - Koboko,A008_Link06,A,270.299011230469,3.255021,30.943035,20.3,1,2,0,10.7,Reinforced Concrete,01,Bituminous,2015,4,2023-01-08,Arua,Northern,Arua,A,AYI RIVER,7
BRG-B123,YOO,bridge,Kampala - Entebbe Expressway,M3_Link01,M,280.600006103516,3.326374,30.948389,17.3,1,2,0,10.7,Reinforced Concrete,01,Bituminous,2018,4,2023-06-07,Kampala,Central,Kampala,M,YOYO RIVER,7
BRG-B124,ORU BRIDGE,bridge,Kampala - Entebbe Expressway,M3_Link01,M,281.600006103516,3.333611,30.95351,24.3,1,2,0,10.7,Timber,01,Bituminous,2018,4,2022-07-12,Kampala,Central,Kampala,M,ORU RIVER,7
BRG-B125,APA BRIDGE,bridge,Kampala - Entebbe Expressway,M3_Link01,M,283.200012207031,3.396792,30.956715,17.1,1,2,0,10.8,Steel Composite,01,Bituminous,2018,5,2022-10-10,Kampala,Central,Kampala,M,APA RIVER,7
BRG-B126,KOCHI BRIDGE,bridge,Kampala - Entebbe Expressway,M3_Link01,M,298.299987792969,3.442961,30.960333,14.9,1,2,0,10.8,Steel Girder,01,Bituminous,2018,5,2024-04-02,Kampala,Central,Kampala,M,KOCHI,7
BRG-B127,AYUGI BRIDGE,bridge,Kiziranfumbi - Kabaale,C596_Link01,C,20.1000003814697,3.348225,32.041069,14.4,3,2,2,11.1,Reinforced Concrete,01,Bituminous,2024,4,2023-10-05,Hoima,Western,Hoima,C,AYUGI RIVER,7
BRG-B129,ERIA BRIDGE,bridge,Atiak - Moyo,B250_Link01,B,42.2000007629395,3.377563,31.993473,12.4,3,2,2,11.1,Steel Truss,01,Bituminous,2025,5,2022-09-10,Moyo,Northern,Moyo,B,ERIA RIVER,6
BRG-B134,YII BRIDGE,bridge,Moyo - Yumbe,B250_Link02,B,111.778999328613,3.580359,31.571014,7.7,1,1,0,3.6,Steel Composite,01,Unsealed,0,3,2023-06-07,Moyo,Northern,Moyo,B,YII,3
BRG-B134-153,YII,bridge,Moyo - Yumbe,B250_Link02,B,0,3.60911,31.535219,20,1,2,0,7.3,Steel Composite,Road over river,Unsealed,0,2,2023-10-05,Moyo,Northern,Moyo,B,,7
BRG-B135,NYAWA BRIDGE,bridge,Moyo - Yumbe,B250_Link02,B,117.800003051758,3.609253,31.535076,15.7,2,2,1,8.6,Prestressed Concrete,01,Unsealed,0,2,2023-08-06,Moyo,Northern,Moyo,B,NYAWA BRIDGE,7
BRG-B135-155,NYAWA,bridge,Moyo - Yumbe,B250_Link02,B,0,3.575433,31.481871,19,1,2,0,7.3,Steel Girder,Road over river,Unsealed,0,2,2023-09-05,Moyo,Northern,Moyo,B,,7
BRG-B136,KOCHI,bridge,Moyo - Yumbe,B250_Link02,B,123.599998474121,3.559625,31.438583,18.8,2,2,1,8.6,Timber,01,Unsealed,0,2,2023-08-06,Moyo,Northern,Moyo,B,KOCHI,7
BRG-B137,JURE,bridge,Yumbe - Manibe,B250_Link03,B,0,3.38139,31.2775,25,1,2,0,7.3,Prestressed Concrete,Road over river,Unsealed,0,3,2023-02-07,Arua,Northern,Arua,B,,2
BRG-B138,DACHA,bridge,Yumbe - Manibe,B250_Link03,B,172.533004760742,3.362382,31.262203,11.7,1,2,0,8.7,Steel Composite,01,Unsealed,0,4,2024-03-03,Arua,Northern,Arua,B,DACHA,7
BRG-B139,ORE BRIDGE,bridge,Yumbe - Manibe,B250_Link03,B,181.113998413086,3.337053,31.203848,11.5,1,2,0,8.7,Timber,01,Unsealed,0,3,2023-11-04,Arua,Northern,Arua,B,ORE RIVER,7
BRG-B142,ORU BRIDGE,bridge,Yumbe - Manibe,B250_Link03,B,192.733993530273,3.265765,31.135326,6.8,5,1,4,3.7,Masonry,01,Unsealed,0,2,2024-05-02,Arua,Northern,Arua,B,ORU BRIDGE,4
BRG-B143,ENYAWU BRIDGE,bridge,Yumbe - Manibe,B250_Link03,B,198.899993896484,3.252225,31.124056,8.4,4,1,3,4.2,Reinforced Concrete,01,Unsealed,0,2,2023-08-06,Arua,Northern,Arua,B,ENYAWU RIVER,6
BRG-B144,AYAGO BRIDGE,bridge,Gulu - Olwiyo,B251_Link01,B,35.7999992370605,2.617902,32.055302,19.0,1,2,0,11.6,Timber,01,Bituminous,2019,5,2024-04-02,Gulu,Northern,Gulu,B,AYAGO RIVER,7
BRG-B145,AYAGO BRIDGE,bridge,Karuma - Olwiyo,A008_Link01,A,38.2000007629395,2.416902,31.996092,10.8,3,2,2,7.5,Masonry,01,Bituminous,2006,4,2023-08-06,Gulu,Northern,Gulu,A,AYAGO RIVER,7
BRG-B146,AKAKU,bridge,Gulu - Olwiyo,B251_Link01,B,0,2.58932,31.92931,16,1,2,0,7.3,Steel Composite,Road over river,Bituminous,2019,5,2023-06-07,Gulu,Northern,Gulu,B,,5
BRG-B147,ITUNGA BRIDGE,bridge,Lira - Puranga Bridge,B252_Link01,B,61.8079986572266,2.55183,32.932499,7.3,1,1,0,7.9,Prestressed Concrete,01,Unsealed,0,4,2023-03-09,Lira,Northern,Lira,B,ITUNGA STREAM,5
BRG-B148,PURANGA BRIDGE,bridge,Lira - Puranga Bridge,B252_Link01,B,61.8079986572266,2.60644,32.936661,19.0,3,2,2,11.6,Steel Truss,01,Unsealed,0,4,2022-09-10,Lira,Northern,Lira,B,PURANGA RIVER,7
BRG-B149,ATUP BRIDGE,bridge,Puranga Bridge - Corner Kilak - Pejule - Acholibur,B252_Link02,B,163.147994995117,2.73759,32.949791,4.2,2,2,1,7.9,Prestressed Concrete,01,Unsealed,0,4,2023-07-07,Kitgum,Northern,Kitgum,B,ATUP RIVER,6
BRG-B150,AGORA BRIDGE,bridge,Puranga Bridge - Corner Kilak - Pejule - Acholibur,B252_Link02,B,104.779998779297,2.82143,32.962421,4.8,1,2,0,8.0,Timber,01,Unsealed,0,2,2023-10-05,Kitgum,Northern,Kitgum,B,AGORA RIVER,4
BRG-B151,AGAGO BRIDGE,bridge,Puranga Bridge - Corner Kilak - Pejule - Acholibur,B252_Link02,B,112.871002197266,2.83984,32.964451,5.1,6,2,5,8.0,Steel Girder,01,Unsealed,0,4,2023-03-09,Kitgum,Northern,Kitgum,B,AGAGO,6
BRG-B154,PAGER BRIDGE,bridge,Acholibur - Kitgum,B252_Link03,B,185.481002807617,3.30085,32.879749,18.7,3,2,2,15.0,Masonry,01,Bituminous,2018,5,2023-02-07,Kitgum,Northern,Kitgum,B,PAGER RIVER,7
BRG-B156,ARINGA BRIDGE,bridge,Kitgum - Madi Opei,B252_Link04,B,203.785003662109,3.396599,33.004631,18.7,2,2,1,11.6,Steel Truss,01,Bituminous,2018,5,2024-01-03,Kitgum,Northern,Kitgum,B,ARINGA,7
BRG-B158,SIPI,bridge,Muyembe - Namalu,B300_Link03,B,72.0999984741211,1.38248,34.314331,8.0,1,2,0,4.5,Timber,01,Unsealed,0,3,2024-04-02,Mbale,Eastern,Mbale,B,SIPI,5
BRG-B159,CHEPTUI,bridge,Muyembe - Namalu,B300_Link03,B,32.5,1.40637,34.3442,21.0,1,2,0,5.5,Timber,01,Unsealed,0,3,2023-07-07,Mbale,Eastern,Mbale,B,CHEPTUI,1
BRG-B160,CHESEBERE,bridge,Muyembe - Namalu,B300_Link03,B,32.5,1.41471,34.34967,5.0,1,1,0,9.0,Steel Girder,01,Unsealed,0,3,2022-12-09,Mbale,Eastern,Mbale,B,CHESEBERE,0
BRG-B161,MUYEMBE-ANGUTUM,bridge,Muyembe - Namalu,B300_Link03,B,32.5,1.47082,34.40419,12.0,1,2,0,8.0,Steel Truss,01,Unsealed,0,4,2024-02-02,Mbale,Eastern,Mbale,B,,4
BRG-B162,ROAD OVER RIVER,bridge,Muyembe - Namalu,B300_Link03,B,32.5,1.50021,34.444229,7.0,1,2,0,7.6,Steel Composite,01,Unsealed,0,4,2024-03-03,Mbale,Eastern,Mbale,B,,2
BRG-B163,SERETYO,bridge,Muyembe - Namalu,B300_Link03,B,208.0,1.53895,34.49395,20.0,1,2,0,11.4,Timber,01,Unsealed,0,2,2023-11-04,Mbale,Eastern,Mbale,B,SERETYO,7
BRG-B164,OKILIM,bridge,Muyembe - Namalu,B300_Link03,B,0,1.59842,34.543621,8.2,3,2,2,20.0,Steel Composite,01,Unsealed,0,4,2023-11-04,Mbale,Eastern,Mbale,B,,0
BRG-B165,LORENGEDWAT,bridge,Lokapel - Ariamoi,B300_Link05,B,162.0,2.35148,34.580502,24.5,2,2,1,11.0,Timber,01,Bituminous,2016,5,2022-07-12,Moroto,North Eastern,Moroto,B,OMANIMAN,7
BRG-B166,NAMALERA,bridge,Lokapel - Ariamoi,B300_Link05,B,161.800003051758,2.40346,34.57373,25.0,1,2,0,11.0,Steel Composite,01,Bituminous,2016,5,2023-11-04,Moroto,North Eastern,Moroto,B,NAMALERA,7
BRG-B167,LOKALI,bridge,Lokapel - Ariamoi,B300_Link05,B,162.0,2.44495,34.571831,25.0,1,2,0,11.0,Timber,01,Bituminous,2016,4,2022-10-10,Moroto,North Eastern,Moroto,B,LOKALI,7
BRG-B168,NADUNGET,bridge,Ariamoi - Moroto,B300_Link06,B,208.0,2.51141,34.592621,25.0,1,2,0,11.0,Steel Composite,01,Bituminous,2016,5,2022-10-10,Moroto,North Eastern,Moroto,B,ANGOLOT,7
BRG-B169,LOKICHAR,bridge,Ariamoi - Kaladonapal - Kaperimoru,B301_Link01,B,0,2.57909,34.333889,77,1,2,0,7.3,Timber,Road over river,Unsealed,0,4,2022-06-12,Kotido,North Eastern,Kotido,B,,5
BRG-B170,DANYANGALA,bridge,Kapelimoru - Kotido,B301_Link02,B,83.5,2.97246,34.11483,31.0,1,2,0,4.8,Prestressed Concrete,01,Unsealed,0,4,2023-04-08,Kotido,North Eastern,Kotido,B,,7
BRG-B171,KOTIDO- KAILONG,bridge,Kotido - Abim,B302_Link01,B,63.5,2.99582,34.09211,18.8,1,1,0,4.5,Prestressed Concrete,01,Unsealed,0,3,2023-12-04,Kotido,North Eastern,Kotido,B,,7
BRG-B172,KATULANGOLE,bridge,Kotido - Apaan - Kabong,B301_Link03,B,102.5,3.3311,34.118771,21.5,1,1,0,4.5,Steel Truss,01,Unsealed,0,4,2023-02-07,Kotido,North Eastern,Kotido,B,KATULANGOLE,6
BRG-B173,LOCHOM,bridge,Kotido - Apaan - Kabong,B301_Link03,B,102.5,3.43824,34.144859,15.8,1,2,0,4.5,Timber,01,Unsealed,0,3,2023-01-08,Kotido,North Eastern,Kotido,B,LOCHOM,7
BRG-B174,LOMUSAN,bridge,Kotido - Apaan - Kabong,B301_Link03,B,102.5,3.49903,34.165779,15.6,1,2,0,4.5,Prestressed Concrete,01,Unsealed,0,4,2023-06-07,Kotido,North Eastern,Kotido,B,LOMUSAN,7
BRG-B175,KAABONG,bridge,Kotido - Apaan - Kabong,B301_Link03,B,102.5,3.52005,34.12896,20.0,2,2,1,10.4,Reinforced Concrete,01,Unsealed,0,3,2023-06-07,Kotido,North Eastern,Kotido,B,KAABONG,7
BRG-B176,LAKAPELOT,bridge,Kotido - Apaan - Kabong,B301_Link03,B,102.5,3.62877,34.088291,15.0,1,2,0,4.5,Masonry,01,Unsealed,0,3,2023-06-07,Kotido,North Eastern,Kotido,B,AKAPELOT,1
BRG-B177,YADALALA,bridge,Kotido - Apaan - Kabong,B301_Link03,B,102.5,3.64267,34.074718,15.0,1,2,0,4.5,Prestressed Concrete,01,Unsealed,0,2,2024-05-02,Kotido,North Eastern,Kotido,B,NAKWOSONGWAN,7
BRG-B178,NARIAMABUNE,bridge,Kotido - Apaan - Kabong,B301_Link03,B,102.5,3.64615,34.036449,16.0,1,2,0,10.5,Prestressed Concrete,01,Unsealed,0,3,2023-02-07,Kotido,North Eastern,Kotido,B,LOBALOKILI,7
BRG-B179,LOYOROIT,bridge,Kotido - Abim,B302_Link01,B,43.0,2.82157,33.75135,27.0,1,1,0,5.0,Steel Truss,01,Unsealed,0,4,2023-03-09,Kotido,North Eastern,Kotido,B,LOYOROIT,7
BRG-B181,OTAKA BRIDGE,bridge,Abim - Kilak,B302_Link02,B,0,2.80604,33.063862,39,1,2,0,7.3,Steel Truss,Road over river,Unsealed,0,4,2024-04-02,Kitgum,Northern,Kitgum,B,,7
BRG-B182,KOMOLO,bridge,Arapai - Katakwi - Iriri,B303_Link02,B,29.6000003814697,1.85869,33.847889,26.0,3,2,2,11.0,Prestressed Concrete,01,Bituminous,2020,5,2022-11-09,Soroti,North Eastern,Soroti,B,KOMOLO,7
BRG-B183,GETOM,bridge,Arapai - Katakwi - Iriri,B303_Link02,B,0,1.86417,33.864201,37,1,2,0,7.3,Timber,Road over river,Bituminous,2020,5,2023-06-07,Soroti,North Eastern,Soroti,B,,4
BRG-B184,AKANGOLE,bridge,Arapai - Katakwi - Iriri,B303_Link02,B,54.0999984741211,2.43725,34.478359,26.0,3,2,2,18.8,Steel Truss,01,Bituminous,2020,4,2023-05-08,Soroti,North Eastern,Soroti,B,OMANIMA,7
BRG-B185,Apak Bridge,bridge,Lira - Akia,C650_Link01,C,0,2.37072,33.220798,62,1,2,0,7.3,Steel Truss,Road over river,Bituminous,2019,5,2024-02-02,Lira,Northern,Lira,C,,7
BRG-B186,APAK BRIDGE,bridge,Lira - Akia,C650_Link01,C,43.7400016784668,2.37072,33.220791,20.2,2,2,1,9.7,Steel Truss,01,Bituminous,2019,5,2023-07-07,Lira,Northern,Lira,C,APAK RIVER,7
BRG-B187,TOCHI (AWOL) BRIDGE,bridge,Bobi-Aboke-Ayer,C655_Link01,C,7.92999982833862,2.524747,32.40358,26.6,1,2,0,11.2,Steel Composite,01,Unsealed,0,2,2024-01-03,Gulu,Northern,Gulu,C,TOCHI RIVER,7
BRG-B188,ODEK,bridge,Opit-Rwackoko,C680_Link02,C,0,2.68018,32.739159,48,1,2,0,7.3,Steel Girder,Road over river,Unsealed,0,3,2024-04-02,Gulu,Northern,Gulu,C,,7
BRG-B189,AWERE BRIDGE,bridge,Opit-Rwackoko,C680_Link02,C,74.9100036621094,2.687393,32.786407,16.5,3,1,2,6.8,Timber,01,Unsealed,0,4,2022-07-12,Gulu,Northern,Gulu,C,ASWA RIVER,3
BRG-B192,AJAN BRIDGE,bridge,Acholibur - Aswa,C681_Link01,C,21.5249996185303,3.030654,32.76746,19.4,2,2,1,11.7,Reinforced Concrete,01,Bituminous,2018,5,2023-09-05,Kitgum,Northern,Kitgum,C,AJAN RIVER,7
BRG-B195,ASWA BRIDGE,bridge,Aswa - Gulu,C681_Link02,C,45.1209983825684,2.957123,32.581944,20.4,3,2,2,10.6,Reinforced Concrete,01,Bituminous,2018,4,2022-10-10,Gulu,Northern,Gulu,C,ASWA RIVER,7
BRG-B196,UNYAMA BRIDGE,bridge,Gulu - Logere - Adee,C682_Link01,C,20.3199996948242,2.955103,32.288567,6.8,2,1,1,4.2,Reinforced Concrete,01,Unsealed,0,4,2022-08-11,Gulu,Northern,Gulu,C,UNYAMA RIVER,4
BRG-B197,Nyarwotho,bridge,Nebbi - Goli,C745_Link01,C,0,2.37718,31.029881,26,1,2,0,7.3,Steel Composite,Road over river,Unsealed,0,4,2022-12-09,Arua,Northern,Arua,C,,7
BRG-B198,UNYAMA BRIDGE,bridge,Atiak-Palabek,C700_Link01,C,10.9449996948242,3.266038,32.20805,31.0,1,1,0,6.5,Masonry,01,Unsealed,0,3,2024-04-02,Kitgum,Northern,Kitgum,C,UNYAMA RIVER,7
BRG-B199,ASWA BRIDGE,bridge,Atiak-Palabek,C700_Link01,C,37.4980010986328,3.299143,32.36237,22.0,4,1,3,6.0,Timber,01,Unsealed,0,4,2023-02-07,Kitgum,Northern,Kitgum,C,ASWA RIVER,7
BRG-B200,AWICH BRIDGE,bridge,Atiak-Palabek,C700_Link01,C,48.1199989318848,3.369424,32.413349,10.6,1,1,0,3.9,Steel Girder,01,Unsealed,0,3,2023-05-08,Kitgum,Northern,Kitgum,C,AWICH RIVER,4
BRG-B201,BURKUNG,bridge,Atiak-Palabek,C700_Link01,C,62.8870010375977,3.43055,32.52346,12.6,1,1,0,6.0,Steel Composite,01,Unsealed,0,2,2024-04-02,Kitgum,Northern,Kitgum,C,BURKUNG,5
BRG-B202,LAGWEL BRIDGE,bridge,Kitgum-Lukung-Ngomoromo,C701_Link01,C,14.4670000076294,3.441197,32.853283,5.5,1,1,0,4.3,Timber,01,Unsealed,0,3,2024-04-02,Kitgum,Northern,Kitgum,C,LAGWEL STREAM,6
BRG-B203,LIMU BRIDGE,bridge,Kitgum-Lukung-Ngomoromo,C701_Link01,C,54.4860000610352,3.668679,32.591454,7.4,1,1,0,5.6,Steel Truss,01,Unsealed,0,3,2023-12-04,Kitgum,Northern,Kitgum,C,LIMU RIVER,3
BRG-B206,OKURA BRIDGE,bridge,Madi Opei-Agoro Hills,C702_Link01,C,0,3.79756,33.014526,10.3,1,1,0,4.6,Reinforced Concrete,01,Unsealed,0,4,2024-02-02,Kitgum,Northern,Kitgum,C,21.543,7
BRG-B207,KITGUM MATIDI,bridge,Kitgum - Orom,C703_Link01,C,22.1469993591309,3.260317,33.069176,5.1,8,1,7,4.8,Masonry,01,Unsealed,0,3,2023-12-04,Kitgum,Northern,Kitgum,C,PAGER RIVER,4
BRG-B208,ORAA 1,bridge,Pakwach-Inde,C743_Link01,C,0,2.71777,31.392731,65,1,2,0,7.3,Timber,Road over river,Unsealed,0,4,2022-08-11,Arua,Northern,Arua,C,,4
BRG-B209,ORAA2 BRIDGE,bridge,Pakwach-Inde,C743_Link01,C,33.5620002746582,2.714978,31.392799,35.2,1,1,0,5.1,Reinforced Concrete,01,Unsealed,0,4,2023-12-04,Arua,Northern,Arua,C,ORAA RIVER,5
BRG-B210,AWA,bridge,Inde-Ocoko,C743_Link02,C,0,2.88667,31.20067,57,1,2,0,7.3,Timber,Road over river,Unsealed,0,4,2022-11-09,Arua,Northern,Arua,C,,2
BRG-B211,ALLAH BRIDGE,bridge,Inde-Ocoko,C743_Link02,C,78.2990036010742,2.903366,31.072243,21.0,1,2,0,11.4,Reinforced Concrete,01,Unsealed,0,2,2024-03-03,Arua,Northern,Arua,C,ALA RIVER,7
BRG-B212,OLEMIKA BRIDGE,bridge,Inde-Ocoko,C743_Link02,C,84.4990005493164,2.914741,31.019199,11.6,1,2,0,10.7,Steel Girder,01,Unsealed,0,2,2024-04-02,Arua,Northern,Arua,C,OLEMIKA,7
BRG-B213,BORO BRIDGE,bridge,Packwach - Panyimur,C746_Link01,C,21.8050003051758,2.320189,31.357399,7.0,3,1,2,4.0,Steel Composite,01,Unsealed,0,4,2022-08-11,Arua,Northern,Arua,C,MUTUTU,6
BRG-B214,KIVUJE BRIDGE,bridge,Packwach - Panyimur,C746_Link01,C,26.1660003662109,2.289883,31.335587,8.7,1,1,0,4.0,Steel Composite,01,Unsealed,0,2,2023-06-07,Arua,Northern,Arua,C,KIVUJE,3
BRG-B215,LOJORO,bridge,Angatun-Nabilatuk-Lokapel,C960_Link01,C,22.0,2.0349,34.568588,5.0,1,1,0,4.5,Masonry,01,Unsealed,0,2,2024-01-03,Moroto,North Eastern,Moroto,C,LOJORO,5
BRG-B216,NAKOYITI,bridge,Angatun-Nabilatuk-Lokapel,C960_Link01,C,46.5,2.10067,34.6814,12.0,1,1,0,5.0,Timber,01,Unsealed,0,4,2022-12-09,Moroto,North Eastern,Moroto,C,NAKOYITI,3
BRG-B217,CHOLOLO,bridge,Chosan to Amudat,C961_Link01,C,30.5,1.94414,34.826649,20.0,1,2,0,10.4,Steel Composite,01,Unsealed,0,2,2024-05-02,Moroto,North Eastern,Moroto,C,CHOLOLO,3
BRG-B218,KOLO BRIDGE,bridge,Nambole - Kampala Industrial Park - Mukono,C036_Link01,C,0,0.34908,32.698509,28,1,2,0,7.3,Steel Composite,Road over river,Unsealed,0,4,2023-05-08,Kampala,Central,Kampala,C,,5
BRG-B220,KIGUNGU BRIDGE,bridge,Access to Kigungu,C177_Link01,C,0,0.02185,32.440361,37,1,2,0,7.3,Steel Girder,Road over river,Unsealed,0,3,2023-03-09,Kampala,Central,Kampala,C,,6
BRG-B222,MAYANJA,bridge,Namayumba - Kitalya Prison - Kamuli,C187_Link01,C,0,0.40709,32.251419,29,1,2,0,7.3,Masonry,Road over river,Unsealed,0,3,2023-03-09,Kampala,Central,Kampala,C,,6
BRG-B223,BUKOOLA,bridge,Kitumbi Bridge - Bukwiri,C271_Link04,C,0,0.893864,31.625471,69,1,2,0,7.3,Steel Composite,Road over river,Unsealed,0,3,2024-03-03,Hoima,Western,Hoima,C,,5
BRG-B225,MAYANJA BRIDGE,bridge,Kapeeka - Singo Military Barracks - Kituuma,C320_Link01,C,0,0.68194,32.171902,79,1,2,0,7.3,Prestressed Concrete,Road over river,Unsealed,0,2,2023-12-04,Luwero,Central,Luwero,C,,6
BRG-B227,NKURUNGU,bridge,Kabujogera - Mahyoro Junction,C373_Link02,C,0,-0.102603,30.346518,45,1,2,0,7.3,Masonry,Road over river,Unsealed,0,3,2022-12-09,Ibanda,Southern,Ibanda,C,,6
BRG-B228,BUTEMBE BRIDGE,bridge,Rukungiri - Station Boundary,C452_Link01,C,19.6000003814697,-0.65107,29.958969,10.0,1,1,0,4.0,Steel Truss,01,Unsealed,0,2,2023-06-07,Kabale,Southern,Kabale,C,BUTEMBE RIVER,4
BRG-B229,KYONYO,bridge,Nsiika - Bihanga -Katerera(Ishaka T/C),C416_Link02,C,0,-0.263133,30.326916,38,1,2,0,7.3,Steel Girder,Road over river,Unsealed,0,3,2024-04-02,Ibanda,Southern,Ibanda,C,,1
BRG-B230,Maziba Bridge,bridge,Old Kabale Road (Kigata - Kabunyonyi - N,C424_Link01,C,0,-1.31133,30.098591,20.0,3,2,2,10.6,Prestressed Concrete,Road over river,Unsealed,0,4,2023-10-05,Kabale,Southern,Kabale,C,,5
BRG-B231,MPUNGU BRIDGE,bridge,Ikumba - Nfasha - Ruhija - Mpungu - Hama,C434_Link01,C,47.0,-0.979269,29.691502,6.2,3,1,2,4.8,Timber,01,Unsealed,0,4,2023-09-05,Kabale,Southern,Kabale,C,MPUNGU RIVER,5
BRG-B232,MUCHA BRIDGE,bridge,Kisoro - Nyabwishenya,C436_Link01,C,0,-1.22407,29.715969,9.6,1,1,0,3.8,Steel Truss,01,Unsealed,0,3,2023-10-05,Kabale,Southern,Kabale,C,MUCHA RIVER,4
BRG-B233,KAKU BRIDGE,bridge,Natete - Busanza - Mpaka,C439_Link01,C,12.3000001907349,-1.197372,29.611555,18.0,1,2,0,10.1,Steel Girder,01,Unsealed,0,3,2023-06-07,Kabale,Southern,Kabale,C,KAKU RIVER,7
BRG-B234,ISHASHA BRIDGE,bridge,Kanyantorogo - Butogota,C440_Link01,C,9.01000022888184,-0.83906,29.640989,20.3,1,1,0,5.0,Reinforced Concrete,01,Unsealed,0,3,2023-05-08,Kabale,Southern,Kabale,C,ISHASHA RIVER,6
BRG-B235,MUYAGA BRIDGE,bridge,Butogota - Kyeshero-Buhom,C440_Link02,C,18.4200000762939,-0.90849,29.6374,9.6,1,1,0,4.9,Reinforced Concrete,01,Unsealed,0,2,2023-07-07,Kabale,Southern,Kabale,C,MUYAGA RIVER,6
BRG-B236,KIRURUMA BRIDGE,bridge,Katojo - Kihihi,C441_Link01,C,13.1999998092651,-0.76536,29.72121,21.5,1,1,0,4.5,Steel Girder,01,Unsealed,0,3,2024-01-03,Kabale,Southern,Kabale,C,KIRURUMA,7
BRG-B237,MITANO 01,bridge,Ruerere - Mitaano,C442_Link02,C,32.3499984741211,-0.78366,29.82247,30.0,2,2,1,10.1,Prestressed Concrete,01,Unsealed,0,4,2023-09-05,Kabale,Southern,Kabale,C,MITANO RIVER,7
BRG-B238,KABAALE BRIDGE,bridge,Rukungiri - Ruerere,C442_Link01,C,1.89999997615814,-0.7807,29.84602,4.7,1,1,0,8.0,Masonry,01,Unsealed,0,3,2023-01-08,Kabale,Southern,Kabale,C,KABALE RIVER,4
BRG-B239,KAKINGO BRIDGE,bridge,Bugangari - Campbell,C445_Link02,C,33.75,-0.67665,29.86307,5.7,1,1,0,4.0,Steel Truss,01,Unsealed,0,2,2023-07-07,Kabale,Southern,Kabale,C,KAKINDO RIVER,5
BRG-B240,RUSHAYA BRIDGE,bridge,Bugangari - Campbell,C445_Link02,C,32.4099998474121,-0.583351,29.793762,11.7,3,1,2,3.6,Prestressed Concrete,01,Unsealed,0,3,2024-03-03,Kabale,Southern,Kabale,C,RUSHAYA RIVER,7
BRG-B241,MITANO 02 BRIDGE,bridge,Bukurungu - Nyamirama,C446_Link01,C,16.0,-0.683095,29.799648,31.1,1,1,0,7.0,Steel Girder,01,Bituminous,2023,4,2023-01-08,Kabale,Southern,Kabale,C,MITANO RIVER,5
BRG-B243,RWAMUGANGA BRIDGE,bridge,Kabwohe - Kitagata - Kabira(Mitooma),C447_Link01,C,50.5,-0.623411,30.289885,15.4,1,1,0,4.3,Prestressed Concrete,01,Unsealed,0,4,2022-06-12,Mbarara,Southern,Mbarara,C,RWAMUGANGA RIVER,3
BRG-B246,NDURUMO BRIDGE,bridge,Kabwohe - Kitagata - Kabira(Mitooma),C447_Link01,C,50.5,-0.661432,30.163153,13.5,1,1,0,3.8,Steel Girder,01,Unsealed,0,2,2023-09-05,Mbarara,Southern,Mbarara,C,NDURUMO,3
BRG-B248,KATIZI BRIDGE,bridge,Kabira - Rukungiri,C447_Link02,C,51.5,-0.685226,30.059286,7.0,1,1,0,4.4,Steel Composite,01,Unsealed,0,2,2023-06-07,Kabale,Southern,Kabale,C,KABIRA-RUKUNGIRI,4
BRG-B249,KYAMBURA BRIDGE,bridge,Kyambura - Katerera,C450_Link01,C,1.0,-0.20655,30.10671,18.3,1,2,0,4.4,Steel Composite,01,Unsealed,0,3,2023-03-09,Mbarara,Southern,Mbarara,C,KYAMBURA,4
BRG-B251,ENSHYA BRIDGE,bridge,Nkenda - Bugoye,C519_Link01,C,8.30000019073486,-0.3203,30.0877,6.5,1,1,0,3.7,Steel Composite,01,Unsealed,0,2,2023-12-04,Kasese,Southern,Kasese,C,ENSHYA,5
BRG-B252,RUBIRIHA,bridge,Kithoma - Kiraro,C520_Link02,C,0,-0.08089,29.74876,16.8,2,2,1,10.7,Steel Composite,Road over river,Unsealed,0,3,2023-06-07,Kasese,Southern,Kasese,C,,4
BRG-B253,KABIRA BRIDGE,bridge,Kithoma - Kiraro,C520_Link02,C,9.0,-0.09594,29.7407,12.2,1,1,0,4.4,Steel Girder,01,Unsealed,0,4,2023-08-06,Kasese,Southern,Kasese,C,KABIRA RIVER,3
BRG-B255,RUZAIRWE,bridge,Kibaale-Kyebando - Pacwa,C553_Link01,C,43.0250015258789,1.11092,31.00355,22.0,1,2,0,10.4,Prestressed Concrete,01,Unsealed,0,2,2023-06-07,Hoima,Western,Hoima,C,RUZAIRWE,6
BRG-B256,PEREPA,bridge,Bukuku - Rubona,C556_Link01,C,2.11400008201599,0.566563,30.15575,6.0,1,1,0,4.1,Masonry,01,Unsealed,0,2,2024-01-03,Fort Portal,Western,Fort Portal,C,PERIDA,4
BRG-B258,MAHOMA,bridge,Bukuku - Rubona,C556_Link01,C,5.93499994277954,0.599673,30.15962,5.0,1,1,0,4.0,Reinforced Concrete,01,Unsealed,0,3,2023-01-08,Fort Portal,Western,Fort Portal,C,,3
BRG-B259,DUNGA,bridge,Bukuku - Rubona,C556_Link01,C,8.50800037384033,0.619995,30.1583,3.6,1,1,0,3.4,Timber,01,Unsealed,0,4,2023-06-07,Fort Portal,Western,Fort Portal,C,DUNGA,5
BRG-B260,NYABUSWA,bridge,Bukuku - Rubona,C556_Link01,C,9.51900005340576,0.628507,30.158581,3.1,1,1,0,3.9,Timber,01,Unsealed,0,4,2023-11-04,Fort Portal,Western,Fort Portal,C,,3
BRG-B261,MPANGA,bridge,Bukuku - Rubona,C556_Link01,C,13.1920003890991,0.656084,30.172859,4.0,1,1,0,4.4,Steel Girder,01,Unsealed,0,2,2023-06-07,Fort Portal,Western,Fort Portal,C,,4
BRG-B263,Satisfactory,bridge,Kibuku - Nyabushozi,C575_Link01,C,0,0.929418,30.237967,42,1,2,0,7.3,Steel Truss,Road over river,Unsealed,0,2,2023-09-05,Fort Portal,Western,Fort Portal,C,,4
BRG-B264,MURUNGU,bridge,Kalongo - Kitgum Matidi,C677_Link02,C,10.9029998779297,1.06575,30.82284,2.6,1,1,0,4.7,Steel Girder,01,Unsealed,0,2,2023-11-04,Kitgum,Northern,Kitgum,C,MURUNGU,3
BRG-B265,NGUSE,bridge,Kalongo - Kitgum Matidi,C677_Link02,C,2.82200002670288,1.02426,31.122629,5.9,4,2,3,5.4,Masonry,01,Unsealed,0,2,2023-10-05,Kitgum,Northern,Kitgum,C,NGUSE,4
BRG-B266,MPANGA,bridge,Kalongo - Kitgum Matidi,C677_Link02,C,55.367000579834,0.302793,30.532631,8.2,1,1,0,4.4,Steel Truss,01,Unsealed,0,2,2024-03-03,Kitgum,Northern,Kitgum,C,MPANGA,4
BRG-B267,MPANGA,bridge,Lokitanyara-Loro-Amudat,C963_Link02,C,0,-0.46901,31.198521,7.0,1,2,0,7.8,Masonry,Road over river,Unsealed,0,4,2023-09-05,Moroto,North Eastern,Moroto,C,,7
BRG-B268,MPANGA BRIDGE,bridge,Amudat-Alakasi-Kalita,C963_Link03,C,5.30000019073486,-0.10868,30.413811,30.0,1,1,0,3.7,Masonry,01,Unsealed,0,4,2024-02-02,Moroto,North Eastern,Moroto,C,MPANGA RIVER,5
BRG-B269,KISENGE,bridge,Toroma-Magoro,C964_Link02,C,13.6000003814697,0.92937,30.23797,21.8,1,2,0,7.5,Prestressed Concrete,01,Unsealed,0,2,2024-05-02,Soroti,North Eastern,Soroti,C,KISEGE,4
BRG-B270,WAMBABYA,bridge,Kokeris - Lopei,C967_Link01,C,28.5799999237061,1.529899,31.11483,12.9,2,2,1,10.9,Prestressed Concrete,01,Unsealed,0,4,2023-10-05,Moroto,North Eastern,Moroto,C,WAMBABYA,6
BRG-B271,WAMBABYA,bridge,Bugambe-Kidoma,C594_Link01,C,24.6030006408691,1.37389,31.182899,5.5,1,2,0,8.2,Reinforced Concrete,01,Unsealed,0,3,2024-04-02,Hoima,Western,Hoima,C,,2
BRG-B272,WAMBABYA,bridge,Mairirwe-Wambabya,C595_Link01,C,2.11999988555908,1.381651,31.24888,17.1,1,1,0,4.0,Steel Girder,01,Unsealed,0,3,2024-04-02,Hoima,Western,Hoima,C,MAIRIRWE,4
BRG-B274,Wambabya,bridge,Buseruka-Kigorobya,C601_Link01,C,0,1.569413,31.209574,70,1,2,0,7.3,Reinforced Concrete,Road over river,Unsealed,0,2,2024-01-03,Hoima,Western,Hoima,C,,2
BRG-B275,WAMBABYA,bridge,Kampala - Entebbe Expressway,M3_Link01,M,0,1.558344,31.103519,6.0,1,1,0,4.1,Steel Truss,Road over river,Bituminous,2018,4,2022-12-09,Kampala,Central,Kampala,M,,6
BRG-B276,Kanangalo,bridge,Nkooko-Nalweyo,C627_Link02,C,35.7120018005371,0.95543,31.44503,9.2,1,1,0,5.0,Steel Girder,01,Unsealed,0,2,2024-02-02,Hoima,Western,Hoima,C,Kanangalo,3
BRG-B277,Okole Bridge 1,bridge,Kampala - Entebbe Expressway,M3_Link01,M,0,2.20205,32.571899,17,1,2,0,7.3,Reinforced Concrete,Road over river,Bituminous,2018,4,2022-11-09,Kampala,Central,Kampala,M,,0
BRG-B278,WALABAM,bridge,Kampala - Entebbe Expressway,M3_Link01,M,0,2.408556,32.433491,3.1,1,1,0,3.9,Prestressed Concrete,Road over river,Bituminous,2018,4,2023-12-04,Kampala,Central,Kampala,M,,6
BRG-B279,TOCHI BRIDGE,bridge,Kampala - Entebbe Expressway,M3_Link01,M,24.9699993133545,2.408602,32.433483,6.1,4,1,3,4.5,Masonry,01,Bituminous,2018,4,2023-08-06,Kampala,Central,Kampala,M,TOCHI RIVER,5
BRG-B281,EYAMA BRIDGE,bridge,Kampala - Entebbe Expressway,M3_Link01,M,49.6689987182617,2.11968,33.28405,7.7,1,1,0,3.5,Masonry,01,Bituminous,2018,4,2024-05-02,Kampala,Central,Kampala,M,EYAMA RIVER,4
BRG-B282,ENGET BRIDGE,bridge,Aloi - Aboko - Bata - Dokolo,C671_Link01,C,10.6800003051758,2.1583,33.218971,7.1,1,1,0,3.7,Steel Girder,01,Unsealed,0,4,2023-05-08,Lira,Northern,Lira,C,ENGET RIVER,3
BRG-B283,AKOKOWO BRIDGE,bridge,Aloi - Aboko - Bata - Dokolo,C671_Link01,C,14.6999998092651,2.152578,33.221306,10.3,1,1,0,3.6,Steel Girder,01,Unsealed,0,4,2022-08-11,Lira,Northern,Lira,C,AKOKOWO RIVER,4
BRG-B284,ENGET BRIDGE,bridge,Aloi - Aboko - Bata - Dokolo,C671_Link01,C,31.7900009155273,2.00677,33.197182,20.7,1,2,0,8.0,Masonry,01,Unsealed,0,3,2023-01-08,Lira,Northern,Lira,C,ENGET RIVER,4
BRG-B285,APOC BRIDGE,bridge,Ogur - Apala,C672_Link01,C,3.89000010490417,2.42722,32.963539,4.0,1,1,0,3.5,Steel Girder,01,Unsealed,0,3,2023-02-07,Lira,Northern,Lira,C,APOC RIVER,4
BRG-B286,OBIM BRIDGE,bridge,Ogur - Apala,C672_Link01,C,7.82000017166138,2.41405,33.000771,9.7,1,1,0,3.5,Masonry,01,Unsealed,0,3,2024-04-02,Lira,Northern,Lira,C,OBIM RIVER,4
BRG-B287,APOCHI BRIDGE,bridge,Apala-Aloi,C672_Link02,C,18.3090000152588,2.37308,33.082989,10.7,1,1,0,3.6,Steel Truss,01,Unsealed,0,4,2023-08-06,Lira,Northern,Lira,C,APOCHI RIVER,5
BRG-B288,BUAPORO BRIDGE,bridge,Apala-Aloi,C672_Link02,C,31.3090000152588,2.289351,33.163639,10.5,1,1,0,3.6,Steel Truss,01,Unsealed,0,2,2023-12-04,Lira,Northern,Lira,C,ECONGO,4
BRG-B289,APOC,bridge,Apala-Adwari,C673_Link02,C,0,2.428214,33.08387,4.0,1,1,0,4.4,Steel Girder,Road over river,Unsealed,0,2,2024-05-02,Lira,Northern,Lira,C,,6
BRG-B290,AKWERA BRIDGE,bridge,Apala-Adwari,C673_Link02,C,45.8899993896484,2.458497,33.156769,5.8,3,1,2,5.5,Steel Truss,01,Unsealed,0,2,2023-06-07,Lira,Northern,Lira,C,AKWERA RIVER,5
BRG-B291,OKEE BRIDGE,bridge,Okwang-Okwang Subcounty spur,C994_Link01,C,0.75,2.58299,33.158001,6.0,2,1,1,5.4,Reinforced Concrete,01,Unsealed,0,4,2024-03-03,Lira,Northern,Lira,C,OKEE RIVER,3
BRG-B292,AGAGO BRIDGE,bridge,Pajule - Pader,C675_Link01,C,3.20000004768372,2.849526,33.100666,5.1,5,2,4,7.2,Prestressed Concrete,01,Unsealed,0,2,2024-04-02,Kitgum,Northern,Kitgum,C,AGAGO RIVER,4
BRG-B293,AGAGO BRIDGE,bridge,Patongo - Kalongo,C677_Link01,C,1.55900001525879,2.77968,33.309769,2.6,1,2,0,7.6,Masonry,01,Unsealed,0,4,2023-03-09,Kitgum,Northern,Kitgum,C,AGAGO RIVER,2
BRG-B294,AGAGO BRIDGE,bridge,Patongo - Kalongo,C677_Link01,C,1.58399999141693,2.77988,33.30986,2.6,1,2,0,7.6,Steel Composite,01,Unsealed,0,3,2023-01-08,Kitgum,Northern,Kitgum,C,AGAGO RIVER,2
BRG-B295,AGAGO BRIDGE,bridge,Patongo - Kalongo,C677_Link01,C,2.0,2.78014,33.309921,5.4,2,2,1,7.6,Timber,01,Unsealed,0,3,2023-06-07,Kitgum,Northern,Kitgum,C,AGAGO RIVER,5
BRG-B296,AGAGO BRIDGE,bridge,Patongo - Kalongo,C677_Link01,C,28.4869995117188,3.007711,33.369267,4.1,2,1,1,4.5,Steel Composite,01,Unsealed,0,4,2022-08-11,Kitgum,Northern,Kitgum,C,AGAGO RIVER,4
BRG-B297,BULUGI  BRIDGE,bridge,Kalongo - Kitgum Matidi,C677_Link02,C,69.0,3.17501,33.141289,6.2,1,1,0,4.6,Steel Girder,01,Unsealed,0,2,2024-01-03,Kitgum,Northern,Kitgum,C,BULUGI RIVER,5
BRG-B298,ODYAKA BRIDGE,bridge,Kalongo - Kitgum Matidi,C677_Link02,C,65.0,3.253996,33.062431,5.4,1,1,0,4.8,Reinforced Concrete,01,Unsealed,0,3,2023-12-04,Kitgum,Northern,Kitgum,C,ODYAKA RIVER,5
BRG-B298-292,ODYAKA,bridge,Kalongo - Kitgum Matidi,C677_Link02,C,0,3.264447,33.057758,60,1,2,0,7.3,Prestressed Concrete,Road over river,Unsealed,0,3,2024-03-03,Kitgum,Northern,Kitgum,C,,5
BRG-B299,NAGOYA BRIDGE,bridge,Naamokora - Lokapel,C678_Link01,C,13.8590002059937,2.866306,33.482517,4.0,2,1,1,5.4,Masonry,01,Unsealed,0,3,2023-05-08,Kitgum,Northern,Kitgum,C,NGOYA RIVER,3
BRG-B300,OROK BRIDGE,bridge,Aloi-Aleptong,C997_Link01,C,8.0290002822876,2.26103,33.24461,5.2,2,2,1,5.9,Timber,01,Unsealed,0,4,2023-12-04,Lira,Northern,Lira,C,OROK RIVER,4
BRG-B301,TORCHI,bridge,Katikati - Tenumu - Nwoya,C685_Link01,C,0,2.75503,32.212681,30,1,2,0,7.3,Prestressed Concrete,Road over river,Unsealed,0,4,2023-04-08,Gulu,Northern,Gulu,C,,3
BRG-B302,AYAGO,bridge,Katikati - Tenumu - Nwoya,C685_Link01,C,0,2.74932,32.169022,44,1,2,0,7.3,Steel Girder,Road over river,Unsealed,0,4,2022-08-11,Gulu,Northern,Gulu,C,,4
BRG-B303,AYAGO BRIDGE,bridge,Katikati - Tenumu - Nwoya,C685_Link01,C,11.7700004577637,2.742707,32.137405,5.1,1,1,0,5.0,Prestressed Concrete,01,Unsealed,0,3,2024-04-02,Gulu,Northern,Gulu,C,LANGOL RIVER,4
BRG-B308,OMEE BRIDGE,bridge,Amuru Junction - Awee,C686_Link02,C,51.8499984741211,2.853229,31.761438,17.1,1,1,0,6.0,Prestressed Concrete,01,Unsealed,0,2,2023-11-04,Gulu,Northern,Gulu,C,OMEE RIVER,5
BRG-B312,APAA BRIDGE,bridge,Awee - Omee Rhino Camp,C686_Link03,C,78.9449996948242,2.87649,31.664373,9.7,2,2,1,6.9,Prestressed Concrete,01,Unsealed,0,4,2023-09-05,Gulu,Northern,Gulu,C,APAA RIVER,4
BRG-B313,OCIIP BRIDGE,bridge,Awee - Omee Rhino Camp,C686_Link03,C,75.3399963378906,2.873762,31.585808,9.1,2,2,1,7.0,Timber,01,Unsealed,0,3,2023-04-08,Gulu,Northern,Gulu,C,OCIIP RIVER,4
BRG-B314,OMEE,bridge,Mungula - Adjumani,C688_Link02,C,26.2999992370605,2.96004,31.865665,4.3,3,2,2,7.0,Steel Truss,01,Unsealed,0,4,2023-11-04,Moyo,Northern,Moyo,C,OMEE,4
BRG-B315,ZOKA BRIDGE,bridge,Mungula - Adjumani,C688_Link02,C,46.9000015258789,3.089018,31.782351,5.6,1,2,0,7.1,Timber,01,Unsealed,0,4,2022-07-12,Moyo,Northern,Moyo,C,ZOKA RIVER,5
BRG-B316,AYUGI BRIDGE,bridge,Pakele - Pabbo,C689_Link01,C,13.8999996185303,3.110286,32.080505,17.1,2,2,1,11.1,Prestressed Concrete,01,Unsealed,0,2,2023-11-04,Moyo,Northern,Moyo,C,AYUGI RIVER,7
BRG-B317,OPIO,bridge,Pakele - Pabbo,C689_Link01,C,0,3.20838,32.0089,79,1,2,0,7.3,Masonry,Road over river,Unsealed,0,2,2023-11-04,Moyo,Northern,Moyo,C,,3
BRG-B318,AMORO,bridge,Pakele - Pabbo,C689_Link01,C,0,3.209628,32.000912,31,1,2,0,7.3,Reinforced Concrete,Road over river,Unsealed,0,2,2023-08-06,Moyo,Northern,Moyo,C,,4
BRG-B319,YUBA BRIDGE,bridge,Pakele - Pabbo,C689_Link01,C,31.1000003814697,3.239908,31.938696,4.2,2,2,1,7.1,Timber,01,Unsealed,0,3,2022-12-09,Moyo,Northern,Moyo,C,YUBA RIVER,4
BRG-B320,ADIDI,bridge,Pakele - Pabbo,C689_Link01,C,39.2000007629395,3.31618,31.891741,17.1,2,2,1,11.0,Masonry,01,Unsealed,0,2,2023-06-07,Moyo,Northern,Moyo,C,ADIDI,7
BRG-B321,ODRAGI BRIDGE,bridge,Pakele - Pabbo,C689_Link01,C,39.2000007629395,3.3366,31.868849,3.2,10,1,9,4.0,Steel Composite,01,Unsealed,0,2,2024-03-03,Moyo,Northern,Moyo,C,ODRAGI RIVER,5
BRG-B323,AGAGURA,bridge,Gulu - Logere - Adee,C682_Link01,C,0,3.22894,32.339451,29,1,2,0,7.3,Steel Girder,Road over river,Unsealed,0,4,2024-02-02,Gulu,Northern,Gulu,C,,3
BRG-B324,LAGWEL BRIDGE,bridge,Palabek - Padibe,C704_Link01,C,0.762000024318695,3.466091,32.827736,7.4,1,1,0,5.1,Steel Girder,01,Unsealed,0,2,2024-03-03,Kitgum,Northern,Kitgum,C,LAGWEL RIVER,5
BRG-B325,PAUO BRIDGE,bridge,Palabek - Padibe,C704_Link01,C,23.9829998016357,3.428221,32.703831,4.6,1,1,0,4.9,Prestressed Concrete,01,Unsealed,0,3,2024-02-02,Kitgum,Northern,Kitgum,C,PAUO RIVER,5
BRG-B326,OKWORA BRIDGE,bridge,Paloga - Madiopei,C705_Link02,C,19.8320007324219,3.612535,33.05547,3.1,1,1,0,4.2,Steel Truss,01,Unsealed,0,3,2023-07-07,Kitgum,Northern,Kitgum,C,OKWORA BRIDGE,3
BRG-B327,ARINGA BRIDGE,bridge,Paloga - Madiopei,C705_Link02,C,16.8320007324219,3.592536,32.950226,6.9,1,1,0,4.7,Masonry,01,Unsealed,0,2,2023-06-07,Kitgum,Northern,Kitgum,C,ARINGA RIVER,5
BRG-B328,ARINGA BRIDGE,bridge,Potika - Lututur,C706_Link02,C,18.5939998626709,3.716738,32.894608,16.0,1,2,0,7.0,Masonry,01,Unsealed,0,4,2024-02-02,Kitgum,Northern,Kitgum,C,ARINGA RIVER,6
BRG-B330,NGAGO BRIDGE,bridge,Obongi - Kulikulinga,C721_Link01,C,11.8990001678467,3.230657,31.459076,7.4,1,1,0,3.8,Prestressed Concrete,01,Unsealed,0,3,2024-01-03,Moyo,Northern,Moyo,C,GANGO RIVER,4
BRG-B331,LEA BRIDGE,bridge,Moyo - Obongi,C722_Link01,C,3.5,3.605532,31.651865,6.5,2,1,1,4.4,Reinforced Concrete,01,Unsealed,0,4,2023-02-07,Moyo,Northern,Moyo,C,LEA RIVER,4
BRG-B332,NYAWA BRIDGE,bridge,Moyo - Obongi,C722_Link01,C,23.8999996185303,3.45086,31.62635,11.1,2,1,1,3.5,Reinforced Concrete,01,Unsealed,0,3,2024-04-02,Moyo,Northern,Moyo,C,NYAWA RIVER,5
BRG-B333,OMPOSO BRIDGE,bridge,Moyo - Obongi,C722_Link01,C,36.298999786377,3.370257,31.563513,6.4,4,1,3,3.6,Prestressed Concrete,01,Unsealed,0,2,2023-06-07,Moyo,Northern,Moyo,C,OMPOSO,4
BRG-B334,TETE BRIDGE,bridge,Tete - Nimule Border,C727_Link01,C,11.1990003585815,3.484224,32.011681,10.2,2,1,1,6.7,Steel Girder,01,Unsealed,0,3,2023-05-08,Moyo,Northern,Moyo,C,TETE RIVER,5
BRG-B335,BALIBO,bridge,Katrini - Nyadri,C764_Link01,C,9.77200031280518,3.178337,30.972765,11.5,2,1,1,3.8,Timber,01,Unsealed,0,4,2023-04-08,Arua,Northern,Arua,C,BALIBO,6
BRG-B336,OGUTA BRIDGE,bridge,Panyimur - Paidha Via Erusi-Goli,C747_Link01,C,7.31500005722046,2.25057,31.258675,8.0,1,1,0,3.7,Timber,01,Unsealed,0,3,2022-12-09,Arua,Northern,Arua,C,OGUTA RIVER,4
BRG-B337,ARAGA BRIDGE,bridge,Panyimur - Paidha Via Erusi-Goli,C747_Link01,C,16.4829998016357,2.281648,31.212103,4.1,1,1,0,3.5,Steel Girder,01,Unsealed,0,4,2023-01-08,Arua,Northern,Arua,C,ARAGA RIVER,3
BRG-B338,ACODHO BRIDGE,bridge,Panyimur - Paidha Via Erusi-Goli,C747_Link01,C,18.2630004882813,2.295385,31.209974,7.8,1,1,0,3.5,Prestressed Concrete,01,Unsealed,0,2,2024-01-03,Arua,Northern,Arua,C,ACODHO RIVER,4
BRG-B339,CIDO BRIDGE,bridge,Panyimur - Paidha Via Erusi-Goli,C747_Link01,C,46.6180000305176,2.378301,31.05999,16.6,1,2,0,11.5,Steel Composite,01,Unsealed,0,2,2024-05-02,Arua,Northern,Arua,C,CIDO RIVER,6
BRG-B340,NYARWOTHO BRIDGE,bridge,Panyimur - Paidha Via Erusi-Goli,C747_Link01,C,49.0660018920898,2.380421,31.046659,10.7,1,1,0,4.0,Steel Truss,01,Unsealed,0,2,2024-03-03,Arua,Northern,Arua,C,NYARWOTHO RIVER,4
BRG-B344,ENYAU BRIDGE,bridge,Arua - Lia,C752_Link01,C,2.3840000629425,3.035345,30.892725,10.2,1,1,0,4.0,Timber,01,Unsealed,0,4,2022-12-09,Arua,Northern,Arua,C,ENYAU RIVER,4
BRG-B345,OKAYIVA BRIDGE,bridge,Arua - Lia,C752_Link01,C,3.69899988174438,3.043236,30.883045,10.1,1,1,0,4.2,Masonry,01,Unsealed,0,4,2023-06-07,Arua,Northern,Arua,C,OKAYIVA,4
BRG-B346,ESI BRIDGE,bridge,Arua - Lia,C752_Link01,C,10.0749998092651,3.054537,30.827444,9.0,1,1,0,5.5,Timber,01,Unsealed,0,3,2022-12-09,Arua,Northern,Arua,C,ESI RIVER,4
BRG-B347,ENYAWU-CHILLIO BRIDGE,bridge,Owaffa - Kubala,C755_Link01,C,5.89200019836426,3.201206,31.030401,32.1,1,2,0,11.1,Reinforced Concrete,01,Unsealed,0,2,2023-08-06,Arua,Northern,Arua,C,ENYAWU RIVER,6
BRG-B348,KOCHI,bridge,Keriri - Midigo,C758_Link01,C,0,3.550001,31.25313,77,1,2,0,7.3,Steel Composite,Road over river,Unsealed,0,4,2023-07-07,Moyo,Northern,Moyo,C,,1
BRG-B349,OSU,bridge,Arua - Biliafe,C762_Link01,C,0,3.05018,31.0672,15,1,2,0,7.3,Prestressed Concrete,Road over river,Unsealed,0,3,2024-02-02,Arua,Northern,Arua,C,,2
BRG-B352,KORUBUDE BRIDGE,bridge,Mulanda - Nagongera,C836_Link02,C,0,0.71136,34.01461,74,1,2,0,7.3,Steel Composite,Road over river,Unsealed,0,3,2022-12-09,Tororo,Eastern,Tororo,C,,5
BRG-B354,KAMINIMA,bridge,Nagongera - Merikit - Kidoko,C837_Link01,C,18.0,0.86777,34.110409,4.6,1,1,0,4.9,Masonry,01,Unsealed,0,3,2023-07-07,Tororo,Eastern,Tororo,C,KAMINIMA,5
BRG-B355,KAMUNIMA,bridge,Nagongera - Merikit - Kidoko,C837_Link01,C,18.0,0.87055,34.111382,4.4,1,1,0,4.7,Masonry,01,Unsealed,0,4,2023-09-05,Tororo,Eastern,Tororo,C,,5
BRG-B359,NAMULO,bridge,Doho - Namulo - Amuro,C839_Link01,C,13.5,0.91808,34.025162,20.4,1,1,0,4.3,Steel Truss,01,Unsealed,0,4,2023-07-07,Tororo,Eastern,Tororo,C,MANAFA,5
BRG-B360,PAYA,bridge,Nagongera - Paya - Leresi,C847_Link01,C,18.5,0.82397,34.015369,4.8,1,1,0,5.0,Prestressed Concrete,01,Unsealed,0,3,2023-11-04,Tororo,Eastern,Tororo,C,NAGONGERA,5
BRG-B361,JALANJA,bridge,Nabiganda - Kaiti,C873_Link01,C,3.40000009536743,1.0219,34.036201,4.6,1,1,0,4.7,Masonry,01,Unsealed,0,4,2022-08-11,Mbale,Eastern,Mbale,C,JALAJA,5
BRG-B362,NAHAMYA,bridge,Nabiganda - Kaiti,C873_Link01,C,3.0,1.01686,34.04174,6.5,2,2,1,4.4,Steel Composite,01,Unsealed,0,3,2024-02-02,Mbale,Eastern,Mbale,C,,4
BRG-B363,KITOIKAWUNONI,bridge,Nakaloke-Kabwangasi-Butebo,C878_Link01,C,28.8999996185303,1.19822,33.971031,21.0,1,1,0,5.2,Steel Truss,01,Unsealed,0,3,2023-12-04,Mbale,Eastern,Mbale,C,KITOIKAWUNONI,5
BRG-B364,BUSAMAGA,bridge,Mbale-Bufumbo,C880_Link01,C,16.0,1.08333,34.188309,30.0,1,1,0,4.2,Steel Composite,01,Unsealed,0,2,2024-05-02,Mbale,Eastern,Mbale,C,NAMATYALE,6
BRG-B365,NAMATYALE,bridge,Mbale-Bufumbo,C880_Link01,C,16.0,1.10528,34.279011,8.0,1,1,0,5.0,Reinforced Concrete,01,Unsealed,0,2,2023-08-06,Mbale,Eastern,Mbale,C,NAMATYALE,3
BRG-B366,PONDO,bridge,Buyaga - Buluganya,C884_Link01,C,12.3999996185303,1.28164,34.304482,10.0,1,1,0,7.0,Prestressed Concrete,01,Unsealed,0,3,2024-05-02,Mbale,Eastern,Mbale,C,SIMU,5
BRG-B367,SIMU,bridge,Buyaga - Buluganya,C884_Link01,C,12.3999996185303,1.2446,34.341091,6.0,1,1,0,4.0,Steel Girder,01,Unsealed,0,3,2023-02-07,Mbale,Eastern,Mbale,C,SIMU,4
BRG-B368,SISI,bridge,Buginyanya Agriculture Research Station,C885_Link01,C,5.0,1.26338,34.353828,7.5,1,1,0,6.0,Steel Composite,01,Unsealed,0,3,2023-04-08,Mbale,Eastern,Mbale,C,SISI,3
BRG-B369,KUFFU,bridge,Buseta - Bugiri,C891_Link01,C,7.5,0.93083,34.295952,5.4,1,1,0,9.0,Masonry,01,Unsealed,0,4,2022-07-12,Mbale,Eastern,Mbale,C,KUFFU,5
BRG-B370,NABUKHYA,bridge,Buseta - Bugiri,C891_Link01,C,0,0.92459,34.307739,9.0,1,2,0,9.6,Timber,01,Unsealed,0,2,2023-06-07,Mbale,Eastern,Mbale,C,,6
BRG-B373,NAMISINDWA,bridge,Buseta - Bugiri,C891_Link01,C,7.5,0.90774,34.359661,8.0,1,1,0,4.5,Steel Girder,01,Unsealed,0,2,2024-02-02,Mbale,Eastern,Mbale,C,TSAKHANA,2
BRG-B380,LORO,bridge,Lokitanyara-Loro-Amudat,C963_Link02,C,28.5,2.21327,34.895908,7.0,1,1,0,6.0,Prestressed Concrete,01,Unsealed,0,3,2024-05-02,Moroto,North Eastern,Moroto,C,LORO,4
BRG-B381,KANYANGAREN,bridge,Lokitanyara-Loro-Amudat,C963_Link02,C,0,1.95961,34.94281,62,1,2,0,7.3,Masonry,Road over river,Unsealed,0,3,2024-02-02,Moroto,North Eastern,Moroto,C,,5
BRG-B382,DINGIDINGA,bridge,Amudat-Alakasi-Kalita,C963_Link03,C,0,1.70766,34.947929,38,1,2,0,7.3,Timber,Road over river,Unsealed,0,3,2023-10-05,Moroto,North Eastern,Moroto,C,,4
BRG-B383,OMONGO,bridge,Toroma-Magoro,C964_Link02,C,0,1.75586,34.058392,67,1,2,0,7.3,Prestressed Concrete,Road over river,Unsealed,0,2,2024-02-02,Soroti,North Eastern,Soroti,C,,4
BRG-B384,NAKODONGOT,bridge,Kokeris - Lopei,C967_Link01,C,0,2.46971,34.391781,62,1,2,0,7.3,Prestressed Concrete,Road over river,Unsealed,0,3,2024-05-02,Moroto,North Eastern,Moroto,C,,4
BRG-B390,NAMBOOLE FLYOVER,bridge,Kampala - Mukono,A001_Link01,A,0,0.34823,32.653481,29,1,2,0,7.3,Steel Truss,Road over river,Bituminous,1957,2,2023-12-04,Kampala,Central,Kampala,A,,6
BRG-B391,NAMBOOLE FLYOVER,bridge,Kampala - Mukono,A001_Link01,A,0,0.34879,32.654449,23,1,2,0,7.3,Steel Truss,Road over river,Bituminous,1957,1,2024-02-02,Kampala,Central,Kampala,A,,6
BRG-B392,KYALIWAJJALA BRIDGE,bridge,Kireka-Namugongo-Misindye-Seeta,C152_Link01,C,0,0.36341,32.647881,72,1,2,0,7.3,Masonry,Road over river,Bituminous,2010,3,2024-02-02,Kampala,Central,Kampala,C,,6
BRG-B406,OLWAL,bridge,Lamogi - Amuru Junction,C686_Link01,C,0,2.81509,32.027828,2.6,1,1,0,4.7,Steel Girder,Road over river,Unsealed,0,4,2024-02-02,Gulu,Northern,Gulu,C,,4
BRG-B407,ASHAW,bridge,Lamogi - Amuru Junction,C686_Link01,C,23.4200000762939,2.812723,31.993347,7.3,1,1,0,5.6,Timber,01,Unsealed,0,4,2023-05-08,Gulu,Northern,Gulu,C,ASHAW,4
BRG-B410,Nakaloke-Kabwangasi-Butebo,bridge,Nakaloke-Kabwangasi-Butebo,C878_Link01,C,0,1.19142,33.797329,4.5,1,2,0,6.5,Steel Truss,01,Unsealed,0,3,2023-11-04,Mbale,Eastern,Mbale,C,,5
BRG-B411,SHIKOYE,bridge,Bumbobi-Bubulo,C867_Link01,C,15.3999996185303,0.94239,34.22361,9.4,2,2,1,6.6,Steel Girder,01,Bituminous,2005,3,2023-07-07,Mbale,Eastern,Mbale,C,MANAFA,7
BRG-B413,ARAGI,bridge,Pakele - Pabbo,C689_Link01,C,0,3.256455,31.92869,75,1,2,0,7.3,Steel Truss,Road over river,Unsealed,0,2,2024-01-03,Moyo,Northern,Moyo,C,,1
BRG-B414,LAIMON,bridge,Pakele - Pabbo,C689_Link01,C,0,3.199851,32.022388,33,1,2,0,7.3,Reinforced Concrete,Road over river,Unsealed,0,4,2023-09-05,Moyo,Northern,Moyo,C,,4
BRG-B415,ASIYA BRIDGE,bridge,Mungula - Adjumani,C688_Link02,C,56.2000007629395,3.153729,31.814426,4.2,1,1,0,7.1,Masonry,01,Unsealed,0,4,2022-06-12,Moyo,Northern,Moyo,C,ASIYA RIVER,4
BRG-B430,MURONGO BRIDGE,bridge,Kikagati - Murungo bridge,C354_Link01,C,2.70000004768372,1.065501,30.648222,51.1,1,1,0,7.9,Steel Composite,01,Bituminous,2014,5,2023-10-05,Mbarara,Southern,Mbarara,C,RIVER KAGERA,7
BRG-B450,BUSUNJU BRIDGE,bridge,Nansana - Busunju,A009_Link02,A,0,0.5604,32.21748,80,1,2,0,7.3,Prestressed Concrete,Road over river,Bituminous,2004,5,2022-12-09,Kampala,Central,Kampala,A,,7
BRG-B451,MATE BRIDGE,bridge,Busunju - Kiboga - Lwamata,A009_Link03,A,0,0.61326,32.138569,25,1,2,0,7.3,Steel Girder,Road over river,Bituminous,2007,3,2023-04-08,Kampala,Central,Kampala,A,,7
BRG-B452,NANA BRIDGE,bridge,Busunju - Kiboga - Lwamata,A009_Link03,A,0,0.63059,32.115189,44,1,2,0,7.3,Prestressed Concrete,Road over river,Bituminous,2007,4,2024-05-02,Kampala,Central,Kampala,A,,7
BRG-B453,WAMIKA 2,bridge,Busunju - Kapeeka,C305_Link01,C,0,0.57813,32.235298,41,1,2,0,7.3,Prestressed Concrete,Road over river,Unsealed,0,2,2024-04-02,Luwero,Central,Luwero,C,,4
BRG-B454,WAMIKA 1,bridge,Busunju - Kapeeka,C305_Link01,C,0,0.57642,32.23473,25,1,2,0,7.3,Steel Composite,Road over river,Unsealed,0,2,2024-05-02,Luwero,Central,Luwero,C,,7
BRG-B455,LUGAZI,bridge,Mukono - Lugazi,A001_Link02,A,0,0.36814,32.935871,56,1,2,0,7.3,Masonry,Road over river,Bituminous,1957,1,2023-12-04,Kampala,Central,Kampala,A,,3
BRG-B456,KEE NAKAWUKA,bridge,Natete - Nakawuka - Kisubi,C178_Link01,C,0,0.27814,32.515999,35,1,2,0,7.3,Timber,Road over river,Unsealed,0,4,2023-05-08,Kampala,Central,Kampala,C,,7
BRG-B457,SCOUL UNDERPASS,bridge,Lugazi - Njeru,A001_Link03,A,0,0.37591,32.959862,36,1,2,0,7.3,Reinforced Concrete,Road over river,Bituminous,1957,1,2024-02-02,Kampala,Central,Kampala,A,,4
BRG-B458,MATAGI,bridge,Busunju - Kiboga - Lwamata,A009_Link03,A,0,0.6833,32.054119,29,1,2,0,7.3,Timber,Road over river,Bituminous,2007,3,2024-04-02,Kampala,Central,Kampala,A,,7
BRG-B459,KABAALE BRIDGE,bridge,Kyankwazi - Ngoma,C315_Link01,C,0,1.12198,31.90852,79,1,2,0,7.3,Steel Truss,Road over river,Unsealed,0,3,2023-03-09,Luwero,Central,Luwero,C,,7
BRG-B460,Bridge B460,bridge,Mityana - Naama - Myanzi,A005_Link03,A,0,0.42548,31.96471,62,1,2,0,7.3,Reinforced Concrete,Road over river,Bituminous,2020,5,2022-11-09,Mubende,Central,Mubende,A,,7
BRG-B461,BUKOOLA,bridge,Kyapa - Kasensero,C224_Link01,C,0,0.89951,31.582979,62,1,2,0,7.3,Timber,Road over river,Unsealed,0,2,2024-02-02,Masaka,Central,Masaka,C,,7
BRG-B462,Katonga Bridge,bridge,Buwama - Lukaya,A002_Link04,A,0,0.03426,32.007439,25.0,1,2,0,11.0,Steel Truss,Road over river,Bituminous,1958,1,2024-05-02,Mpigi,Central,Mpigi,A,,7
BRG-B540,RWAMUGANGA-02,bridge,Kabwohe - Kitagata - Kabira(Mitooma),C447_Link01,C,29.2430000305176,0.62338,30.287889,4.2,2,1,1,5.5,Reinforced Concrete,01,Unsealed,0,3,2023-11-04,Mbarara,Southern,Mbarara,C,RWAMUGANGA SWAMP,7
BRG-B541,Murongo Bridge,bridge,Kikagati - Murungo bridge,C354_Link01,C,0,1.0655,30.948231,31.0,1,2,0,4.8,Timber,Road over river,Bituminous,2014,5,2022-09-10,Mbarara,Southern,Mbarara,C,,7
BRG-B542,MIRAMA BORDER 02,bridge,Kafunzo-Kakitumba,C417_Link03,C,35.7099990844727,1.052326,30.459562,21.7,1,1,0,12.1,Steel Truss,01,Bituminous,2017,4,2023-07-07,Kabale,Southern,Kabale,C,RIVER KAGERA,7
BRG-B543,KYAMBU BRIDGE,bridge,Ibanda-Kanoni-Kazo,C356_Link01,C,32.0,0.13287,30.531019,31.9,1,2,0,11.4,Masonry,01,Bituminous,2014,5,2024-01-03,Ibanda,Southern,Ibanda,C,KYAMBU RIVER,7
BRG-B545,NYAMASHEKYE BRIDGE,bridge,Ibanda-Kanoni-Kazo,C356_Link01,C,32.4000015258789,-0.43447,30.460281,34.2,1,2,0,11.4,Prestressed Concrete,01,Bituminous,2014,5,2023-08-06,Ibanda,Southern,Ibanda,C,NYAMASHEKYE,7
BRG-B545-382,NYAMASHEKYE BRIDGE,bridge,Ibanda-Kanoni-Kazo,C356_Link01,C,0,0.09666,30.680361,18.8,1,1,0,4.5,Steel Composite,Road over river,Bituminous,2014,5,2022-06-12,Ibanda,Southern,Ibanda,C,,7
BRG-B546,MPANGA BRIDGE,bridge,Ibanda - Muziza - Kamwenge,B150_Link03,B,98.0,0.10074,30.462099,47.3,1,2,0,11.3,Prestressed Concrete,01,Bituminous,2014,5,2023-03-09,Ibanda,Southern,Ibanda,B,MPANGA RIVER,7
BRG-B547,IBANDA,bridge,Bwizibwera - Ibanda,B150_Link02,B,45.810001373291,-0.17104,30.486179,18.0,1,2,0,8.3,Steel Composite,01,Bituminous,2002,3,2023-04-08,Ibanda,Southern,Ibanda,B,,7
BRG-B549,RWEMBYO BRIDGE,bridge,Kinyamaseke-Kisinga,C513_Link01,C,12.1999998092651,0.07288,29.897579,10.0,1,1,0,4.4,Steel Girder,01,Unsealed,0,4,2022-12-09,Kasese,Southern,Kasese,C,RWEMBYO,7
BRG-B550,KAJWENGE BRIDGE,bridge,Kinyamaseke-Kisinga,C513_Link01,C,8.89999961853027,0.06276,29.872471,5.6,1,1,0,4.5,Steel Truss,01,Unsealed,0,2,2023-06-07,Kasese,Southern,Kasese,C,KAJWENGE RIVER,7
BRG-B551,KYANJUKI,bridge,Kasese - Kilembe mines,C511_Link01,C,0,-0.21362,30.005421,21.5,1,1,0,4.5,Timber,Road over river,Bituminous,2007,4,2023-04-08,Kasese,Southern,Kasese,C,,7
BRG-B552,DELTA BRIDGE,bridge,Mubuku - Kasese,A005_Link13,A,357.230010986328,0.177148,30.088383,10.2,1,2,0,9.9,Timber,01,Bituminous,2007,4,2023-09-05,Kasese,Southern,Kasese,A,,7
BRG-B553,OMUKABARE BRIDGE,bridge,Old Kabale Road (Kigata - Kabunyonyi - N,C424_Link01,C,13.0,-1.303756,30.101078,6.2,1,1,0,6.3,Steel Composite,01,Unsealed,0,3,2023-09-05,Kabale,Southern,Kabale,C,,6
BRG-B554,RUKIRI BRIDGE,bridge,Rubaale - Muhanga - Kabale,A002_Link10,A,344.269989013672,-1.053159,30.182991,14.0,1,2,0,11.0,Prestressed Concrete,01,Bituminous,1985,3,2023-08-06,Kabale,Southern,Kabale,A,RUKIRI RIVER,7
BRG-B555,Kizinga Bridge,bridge,Rwentobo - Ngoma - Kizinga,C422_Link01,C,0,1.14626,30.30652,15.8,1,2,0,4.5,Prestressed Concrete,Road over river,Unsealed,0,4,2022-09-10,Kabale,Southern,Kabale,C,,3
BRG-B556,MUNYANGA BRIDGE,bridge,Rwabuteera-Kanyansande spur,C456_Link01,C,3.79999995231628,-0.93741,29.635759,13.6,1,1,0,5.5,Timber,01,Unsealed,0,3,2022-12-09,Kabale,Southern,Kabale,C,MUTANGA RIVER,5
BRG-B560,Kisinga-Kyarumba-Kibirizi,bridge,Kisinga-Kyarumba-Kibirizi,C513_Link02,C,21.3999996185303,0.11621,29.95256,17.4,1,2,0,8.4,Timber,01,Unsealed,0,2,2024-02-02,Kasese,Southern,Kasese,C,DUNGULUHA,7
BRG-B561,BIRARA BRIDGE,bridge,Ruwerere - Biraara - Kanungu,C459_Link01,C,12.2600002288818,-0.87154,29.86849,16.1,2,2,1,9.0,Reinforced Concrete,01,Unsealed,0,2,2023-11-04,Kabale,Southern,Kabale,C,BIRARA,7
BRG-B600,Kidoko - Kachonga,bridge,Kidoko - Kachonga,C838_Link02,C,8.5,0.94691,34.093479,5.6,2,1,1,3.5,Timber,01,Unsealed,0,3,2023-03-09,Tororo,Eastern,Tororo,C,,7
BRG-B601,Kapir - Ngora,bridge,Kapir - Ngora,C930_Link01,C,19.5,1.41228,33.92091,12.0,2,2,1,14.4,Steel Girder,01,Unsealed,0,3,2024-03-03,Soroti,North Eastern,Soroti,C,,7
BRG-B602,Mulanda - Nagongera,bridge,Mulanda - Nagongera,C836_Link02,C,19.0,0.71138,34.014622,4.5,1,1,0,4.2,Steel Girder,01,Unsealed,0,2,2023-11-04,Tororo,Eastern,Tororo,C,,3
BRG-B603,Kaserem-Kapchorwa-Suam,bridge,Kapchorwa-Suam,B304_Link02,B,7.0,1.41423,34.62104,14.0,1,2,0,15.0,Steel Girder,01,Bituminous,2023,5,2023-08-06,Mbale,Eastern,Mbale,B,,7
BRG-B605,Rubongi - Mulanda,bridge,Rubongi - Mulanda,C844_Link01,C,17.0,0.68541,34.085941,4.0,1,1,0,4.5,Steel Composite,01,Unsealed,0,4,2024-01-03,Tororo,Eastern,Tororo,C,,3
BRG-B606,Kaserem-Kapchorwa-Suam,bridge,Kapchorwa-Suam,B304_Link02,B,7.0,1.41996,34.59985,11.5,1,2,0,15.0,Steel Composite,01,Bituminous,2023,5,2023-08-06,Mbale,Eastern,Mbale,B,,5
BRG-B608,Mbale-Bufumbo,bridge,Mbale-Bufumbo,C880_Link01,C,16.0,1.10831,34.240131,7.0,1,1,0,5.8,Reinforced Concrete,01,Unsealed,0,4,2023-03-09,Mbale,Eastern,Mbale,C,,5
BRG-B609,KAPCHORWA- SUAM,bridge,Kapchorwa-Suam,B304_Link02,B,0,1.41983,34.599781,19.1,1,2,0,15.1,Reinforced Concrete,01,Bituminous,2023,5,2023-12-04,Mbale,Eastern,Mbale,B,,7
BRG-B610,Kanyango Bridge - Kumi,bridge,Kanyago Bridge - Kumi,B305_Link03,B,0,1.41237,33.920898,17.2,2,2,1,13.5,Steel Girder,01,Bituminous,2021,5,2023-02-07,Soroti,North Eastern,Soroti,B,,7
BRG-B611,Kaserem-Kapchorwa-Suam,bridge,Kapchorwa-Suam,B304_Link02,B,0,1.26685,34.743561,30.0,1,2,0,14.0,Steel Truss,01,Bituminous,2023,4,2024-02-02,Mbale,Eastern,Mbale,B,,7
BRG-B612,Kaserem-Kapchorwa-Suam,bridge,Kapchorwa-Suam,B304_Link02,B,0,1.34811,34.633598,35.0,1,2,0,15.5,Prestressed Concrete,01,Bituminous,2023,5,2022-12-09,Mbale,Eastern,Mbale,B,,7
BRG-B630,Mayanja,bridge,Kyenda-Banda-River Mayanja,C608_Link01,C,0,1.121959,31.908895,59,1,2,0,7.3,Steel Composite,Road over river,Unsealed,0,2,2023-11-04,Hoima,Western,Hoima,C,,7
BRG-B631,RUTOHA BRIDGE,bridge,Kiziranfumbi - Kabaale,C596_Link01,C,5.01000022888184,1.41141,31.00145,12.7,1,2,0,11.0,Masonry,01,Bituminous,2024,5,2024-04-02,Hoima,Western,Hoima,C,,7
BRG-B632,KINGFISHER,bridge,Kabwoya - Kituti,C591_Link01,C,41.1080017089844,1.24028,30.757919,20.0,2,2,1,10.0,Reinforced Concrete,01,Unsealed,0,2,2023-11-04,Hoima,Western,Hoima,C,,7
BRG-B634,MPANGA,bridge,Kamwenge - Kabambiro - Bigusyo - Bihanga,C571_Link01,C,6.0,0.15818,30.4907,32.2,1,2,0,10.0,Steel Composite,01,Unsealed,0,4,2022-07-12,Fort Portal,Western,Fort Portal,C,MPANGA,7
BRG-B635,WAAKI BRIDGE,bridge,Hoima (Parajwoki) -Biso,C590_Link01,C,35.4599990844727,1.70923,31.376169,27.7,1,2,0,14.1,Steel Truss,01,Bituminous,2022,5,2022-06-12,Hoima,Western,Hoima,C,WAAKI RIVER,7
BRG-B639,BURYAMBWA,bridge,Nyahuka - Busalu - Butoogo,C545_Link01,C,2.83999991416931,0.68622,30.01375,7.4,1,2,0,5.9,Timber,01,Unsealed,0,2,2023-09-05,Fort Portal,Western,Fort Portal,C,BURYAMBWA,5
BRG-B720,LAKUPE BRIDGE,bridge,Potika - Lututur,C706_Link02,C,22.1070003509521,3.730398,32.920879,5.2,1,1,0,3.0,Steel Truss,01,Unsealed,0,4,2024-02-02,Kitgum,Northern,Kitgum,C,LAKUPE RIVER,4
BRG-B731,ODRO BRIDGE,bridge,Biliafe - Otrevu,C762_Link02,C,35.0,3.077631,31.085619,14.8,1,2,0,11.1,Masonry,01,Unsealed,0,2,2024-01-03,Arua,Northern,Arua,C,ODRO RIVER,7
BRG-B732,ISA BRIDGE,bridge,Biliafe - Otrevu,C762_Link02,C,30.5410003662109,3.126947,31.087509,11.6,1,1,0,4.1,Steel Girder,01,Unsealed,0,4,2022-07-12,Arua,Northern,Arua,C,ISA RIVER,5
BRG-B733,NAARA,bridge,Biliafe - Otrevu,C762_Link02,C,0,3.14417,31.08559,34,1,2,0,7.3,Masonry,Road over river,Unsealed,0,3,2024-05-02,Arua,Northern,Arua,C,,2
BRG-B735,GAZI (ALLA),bridge,Rhino camp-Ogoko-Inde,C742_Link01,C,0,2.8897,31.24107,25,1,2,0,7.3,Steel Truss,Road over river,Unsealed,0,4,2024-02-02,Arua,Northern,Arua,C,,5
BRG-B736,AYUALA BRIDGE,bridge,Paidha-Zombo,C763_Link01,C,10.4980001449585,2.41427,30.959221,8.0,1,1,0,4.3,Timber,01,Unsealed,0,2,2024-02-02,Arua,Northern,Arua,C,AYUDA RIVER,5
BRG-B737,NYAGAK BRIDGE,bridge,Paidha-Zombo,C763_Link01,C,13.1590003967285,2.43322,30.957674,5.3,2,1,1,4.6,Reinforced Concrete,01,Unsealed,0,3,2023-09-05,Arua,Northern,Arua,C,NYAGAK RIVER,5
BRG-B738,ORA BRIDGE,bridge,Zombo-Vurra,C763_Link02,C,51.1749992370605,2.566893,30.864159,6.6,1,1,0,4.4,Masonry,01,Unsealed,0,2,2023-08-06,Arua,Northern,Arua,C,ORA RIVER,7
BRG-B739,ANIZA BRIDGE,bridge,Zombo-Vurra,C763_Link02,C,56.0730018615723,2.589902,30.891249,6.1,1,1,0,4.8,Masonry,01,Unsealed,0,4,2023-09-05,Arua,Northern,Arua,C,ANIZA RIVER,7
BRG-B740,OMOLO BRIDGE,bridge,Zombo-Vurra,C763_Link02,C,60.4659996032715,2.618398,30.87359,10.1,1,1,0,4.4,Masonry,01,Unsealed,0,3,2023-09-05,Arua,Northern,Arua,C,OMOLO RIVER,6
BRG-B741,ODRUA RIVER,bridge,Zombo-Vurra,C763_Link02,C,70.9589996337891,2.672634,30.859312,6.8,2,1,1,3.9,Steel Truss,01,Unsealed,0,3,2024-05-02,Arua,Northern,Arua,C,ODRUA RIVER,4
BRG-B743,ALLA,bridge,Eruba - Logiri,C749_Link01,C,0,2.96701,30.93187,15,1,2,0,7.3,Steel Girder,Road over river,Unsealed,0,2,2024-01-03,Arua,Northern,Arua,C,,4
BRG-B750,TOCHI 2 BRIDGE,bridge,Anyeke-Minakulu,C665_Link02,C,23.9300003051758,2.408013,32.436497,5.6,1,1,0,3.9,Timber,01,Unsealed,0,2,2024-01-03,Gulu,Northern,Gulu,C,TOCHI 2 RIVER,2
BRG-B751,Okole Bridge 2,bridge,Aduku-Teboke-Loro,C662_Link01,C,0,2.20374,32.513,21,1,2,0,7.3,Prestressed Concrete,Road over river,Unsealed,0,3,2023-11-04,Lira,Northern,Lira,C,,0
BRG-B752,TOCHI BRIDGE,bridge,Atapara-Aber-Atura-Kidilani,C693_Link01,C,23.0869998931885,2.22018,32.339561,10.4,3,1,2,5.3,Steel Composite,01,Unsealed,0,4,2023-06-07,Lira,Northern,Lira,C,TOCHI RIVER,3
BRG-B752-427,TOCHI BRIDGE,bridge,Atapara-Aber-Atura-Kidilani,C693_Link01,C,23.0869998931885,2.22018,32.339561,10.0,1,1,0,4.4,Prestressed Concrete,01,Unsealed,0,4,2023-02-07,Lira,Northern,Lira,C,TOCHI RIVER,3
BRG-B760,ITIRIKWA,bridge,Adjumani - Sinyanya Ferry landing,C726_Link01,C,22.5599994659424,3.26724,31.65592,2.0,4,1,3,4.3,Steel Truss,01,Unsealed,0,3,2023-01-08,Moyo,Northern,Moyo,C,ITIRIKWA,3
BRG-B761,ALOI BRIDGE,bridge,Lira - Akia,C650_Link01,C,0,2.27357,33.171299,3.9,1,1,0,4.9,Steel Composite,01,Bituminous,2019,5,2024-02-02,Lira,Northern,Lira,C,ALOI,4
BRG-B762,NAMUKORA,bridge,Naamokora - Lokapel,C678_Link01,C,13.8590002059937,3.34679,33.350052,6.8,2,1,1,4.7,Reinforced Concrete,01,Unsealed,0,2,2023-09-05,Kitgum,Northern,Kitgum,C,PAGER,6
BRG-B763,ENYAU,bridge,Arua - Girigiri - Ovisoni,C751_Link01,C,0.916999995708466,3.01494,30.905081,15.0,1,2,0,11.3,Steel Composite,01,Unsealed,0,3,2023-06-07,Arua,Northern,Arua,C,ENYAU,7
BRG-B764,Amuru Junction - Awee,bridge,Amuru Junction - Awee,C686_Link02,C,55.7000007629395,2.85103,31.746481,4.0,1,1,0,7.0,Masonry,01,Unsealed,0,3,2023-09-05,Gulu,Northern,Gulu,C,,5
BRG-B765,Amuru Junction - Awee,bridge,Amuru Junction - Awee,C686_Link02,C,55.7000007629395,2.85084,31.730659,4.0,1,1,0,7.0,Steel Girder,01,Unsealed,0,4,2023-07-07,Gulu,Northern,Gulu,C,,5
BRG-B766,Amuru Junction - Awee,bridge,Amuru Junction - Awee,C686_Link02,C,57.6500015258789,2.86182,31.714809,3.7,1,1,0,7.0,Steel Girder,01,Unsealed,0,3,2023-02-07,Gulu,Northern,Gulu,C,,5
BRG-B861,ROAD OVER SUGARCANE PLANTATION,bridge,Kakira junction - Iganga,A001_Link06,A,86.0,0.49291,33.298061,5.3,1,2,0,13.6,Reinforced Concrete,09,Bituminous,1960,2,2024-03-03,Jinja,Eastern,Jinja,A,,6
BRG-B862,ROAD OVER SUGARCANE PLANTATION,bridge,Kakira junction - Iganga,A001_Link06,A,86.0,0.50398,33.319271,5.4,1,2,0,13.2,Masonry,09,Bituminous,1960,2,2024-01-03,Jinja,Eastern,Jinja,A,,6
BRG-B863,MALAWA,bridge,Namutere - Busia,B308_Link01,B,16.5,0.58559,34.052441,20.3,2,2,1,11.0,Reinforced Concrete,01,Bituminous,1970,3,2024-05-02,Tororo,Eastern,Tororo,B,MALAWA,7
BRG-B864,KIGULI BRIDGE,bridge,Namagumba - Budadiri,C862_Link01,C,0,1.15105,34.370029,18.2,1,2,0,7.7,Steel Truss,01,Unsealed,0,4,2024-04-02,Mbale,Eastern,Mbale,C,SIRONKO,7
BRG-B865,LERESI,bridge,Nabumali junction-Busolwe,C833_Link01,C,34.5,0.92837,33.99033,26.0,1,2,0,9.5,Prestressed Concrete,01,Unsealed,0,2,2024-04-02,Tororo,Eastern,Tororo,C,MANAFA,7
BRG-B866,MANAFA,bridge,Tororo - Magodes - Nabumali,A007_Link02,A,4.0,0.93705,34.157761,26.4,1,2,0,10.6,Reinforced Concrete,01,Bituminous,1969,2,2023-12-04,Tororo,Eastern,Tororo,A,MAGODES,7
BRG-B867,BUWANGANI,bridge,Bubulo-Bududa Circle road,C867_Link02,C,28.3999996185303,1.00421,34.334431,6.4,1,2,0,7.8,Steel Girder,01,Unsealed,0,3,2023-03-09,Mbale,Eastern,Mbale,C,TSUTSU,4
BRG-B868,DOPETH,bridge,Kotido - Abim,B302_Link01,B,0,2.99895,34.029419,10.1,1,1,0,4.4,Masonry,Road over river,Unsealed,0,2,2024-04-02,Kotido,North Eastern,Kotido,B,,7
BRG-B869,AMETA BRIDGE,bridge,Abim - Kilak,B302_Link02,B,83.8209991455078,2.72251,33.547291,2.2,4,1,3,5.9,Steel Truss,01,Unsealed,0,3,2023-02-07,Kitgum,Northern,Kitgum,B,AGAGO RIVER,4
BRG-B870,WASITA,bridge,Namagumba - Budadiri,C862_Link01,C,18.3999996185303,1.16673,34.312031,15.0,1,2,0,4.6,Steel Composite,01,Unsealed,0,2,2023-12-04,Mbale,Eastern,Mbale,C,WASITA,7
BRG-B871,ROAD OVER RIVER,bridge,Kapchorwa-Suam,B304_Link02,B,7.0,1.41275,34.559341,19.5,1,2,0,17.0,Masonry,01,Bituminous,2023,4,2022-12-09,Mbale,Eastern,Mbale,B,,4
BRG-B872,SITI,bridge,Kapchorwa-Suam,B304_Link02,B,7.0,1.33643,34.662239,17.0,1,2,0,12.0,Masonry,01,Bituminous,2023,4,2023-06-07,Mbale,Eastern,Mbale,B,SITI,7
BRG-B873,GIRIK,bridge,Chepsikunya -Girik,C889_Link01,C,26.0,1.44837,34.718491,15.0,2,2,1,7.2,Timber,01,Unsealed,0,4,2023-05-08,Mbale,Eastern,Mbale,C,,7
BRG-B874,BUKWO,bridge,Kapchorwa-Suam,B304_Link02,B,0,1.28845,34.740051,24.0,1,2,0,14.0,Steel Truss,01,Bituminous,2023,5,2024-02-02,Mbale,Eastern,Mbale,B,,7
BRG-B877,SUAM BRIDGE,bridge,Kapchorwa-Suam,B304_Link02,B,0,1.21605,34.733608,6.8,2,1,1,4.7,Steel Girder,Road over river,Bituminous,2023,5,2024-01-03,Mbale,Eastern,Mbale,B,,0
BRG-B878,AMUDAT - LOROO,bridge,Lokitanyara-Loro-Amudat,C963_Link02,C,28.5,1.95968,34.942768,12.3,3,2,2,5.0,Steel Composite,01,Unsealed,0,2,2024-04-02,Moroto,North Eastern,Moroto,C,,7
BRG-B880,KOTIDO-KAILONG,bridge,Kotido - Abim,B302_Link01,B,5.30000019073486,2.99894,34.029388,21.0,1,1,0,5.0,Reinforced Concrete,01,Unsealed,0,3,2023-01-08,Kotido,North Eastern,Kotido,B,,6
BRG-B881,MUSUKULE,bridge,Rubongi - Mulanda,C844_Link01,C,16.0,0.69045,34.121719,4.0,1,1,0,4.5,Masonry,01,Unsealed,0,3,2023-09-05,Tororo,Eastern,Tororo,C,OSYA,3
BRG-B882,ADEYO,bridge,Mulanda - Nagongera,C836_Link02,C,26.0,0.71079,34.01453,4.0,1,1,0,4.2,Timber,01,Unsealed,0,3,2023-11-04,Tororo,Eastern,Tororo,C,,3
BRG-B883,OKAME,bridge,Tororo(Malaba junction) - Busia,B306_Link01,B,23.0,0.58299,34.138279,10.5,2,1,1,5.2,Steel Girder,01,Unsealed,0,2,2023-12-04,Tororo,Eastern,Tororo,B,OKAME,4
BRG-B884,AKATENYANI,bridge,Tororo(Malaba junction) - Busia,B306_Link01,B,23.0,0.582,34.13792,6.0,1,1,0,5.0,Timber,01,Unsealed,0,3,2022-12-09,Tororo,Eastern,Tororo,B,MALABA,5
BRG-B885,ANGOLO,bridge,Tororo(Malaba junction) - Busia,B306_Link01,B,24.0,0.5204,34.116741,4.0,1,1,0,5.0,Masonry,01,Unsealed,0,3,2023-06-07,Tororo,Eastern,Tororo,B,MALABA,4
BRG-B886,KWAKITEZA,bridge,Luwero-Kiwoko-Butalangu,C306_Link01,C,28.5,0.58573,34.13932,10.5,1,1,0,5.1,Timber,01,Unsealed,0,3,2023-02-07,Luwero,Central,Luwero,C,KWAKITEZA,4
BRG-B887,NATARACHA BRIDGE,bridge,Kapelimoru-Loyoro - Apaan,C992_Link01,C,0,3.31555,34.249451,53,1,2,0,7.3,Reinforced Concrete,Road over river,Unsealed,0,2,2023-06-07,Kotido,North Eastern,Kotido,C,,7
BRG-BM20-1,Namboole B1,bridge,Kampala NorthernBypass,M20,M,0,0.3484,32.6537,56,1,2,0,7.3,Masonry,Road over river,Bituminous,2008,4,2024-02-02,Kampala,Central,Kampala,M,,7
BRG-BM20-10,Old Kira road Over Bridge,bridge,Kampala NorthernBypass,M20,M,0,0.3692,32.6247,78,1,2,0,7.3,Timber,Road over river,Bituminous,2008,3,2023-01-08,Kampala,Central,Kampala,M,,7
BRG-BM20-11,Ntinda foot bridge,bridge,Kampala NorthernBypass,M20,M,0,0.3658,32.6108,34,1,2,0,7.3,Steel Girder,Road over river,Bituminous,2008,4,2022-09-10,Kampala,Central,Kampala,M,,7
BRG-BM20-12,Ntinda B1,bridge,Kampala NorthernBypass,M20,M,0,0.3651,32.6045,24,1,2,0,7.3,Steel Girder,Road over river,Bituminous,2008,5,2022-10-10,Kampala,Central,Kampala,M,,7
BRG-BM20-13,Ntinda B2,bridge,Kampala NorthernBypass,M20,M,0,0.3655,32.6051,26,1,2,0,7.3,Prestressed Concrete,Road over river,Bituminous,2008,5,2023-01-08,Kampala,Central,Kampala,M,,7
BRG-BM20-14,Bukoto-Kisasi over Bridge,bridge,Kampala NorthernBypass,M20,M,0,0.3587,32.5985,65,1,2,0,7.3,Reinforced Concrete,Road over river,Bituminous,2008,3,2023-07-07,Kampala,Central,Kampala,M,,7
BRG-BM20-15,Bukoto-Kyebando B1 RHS,bridge,Kampala NorthernBypass,M20,M,0,0.3525,32.5893,50,1,2,0,7.3,Timber,Road over river,Bituminous,2008,3,2023-10-05,Kampala,Central,Kampala,M,,7
BRG-BM20-16,Bukoto-Kyebando B1 LHS,bridge,Kampala NorthernBypass,M20,M,0,0.3526,32.5892,79,1,2,0,7.3,Steel Girder,Road over river,Bituminous,2008,3,2024-03-03,Kampala,Central,Kampala,M,,7
BRG-BM20-17,Bukoto-Kyebando B2 LHS,bridge,Kampala NorthernBypass,M20,M,0,0.3521,32.5889,54,1,2,0,7.3,Reinforced Concrete,Road over river,Bituminous,2008,4,2022-11-09,Kampala,Central,Kampala,M,,7
BRG-BM20-18,Bukoto-Kyebando B2 RHS,bridge,Kampala NorthernBypass,M20,M,0,0.3521,32.5889,55,1,2,0,7.3,Steel Truss,Road over river,Bituminous,2008,5,2023-03-09,Kampala,Central,Kampala,M,,7
BRG-BM20-19,Kyebando foot bridge,bridge,Kampala NorthernBypass,M20,M,0,0.3497,32.5866,21,1,2,0,7.3,Prestressed Concrete,Road over river,Bituminous,2008,5,2022-09-10,Kampala,Central,Kampala,M,,7
BRG-BM20-2,Namboole B2,bridge,Kampala NorthernBypass,M20,M,0,0.3488,32.6543,41,1,2,0,7.3,Timber,Road over river,Bituminous,2008,5,2023-01-08,Kampala,Central,Kampala,M,,7
BRG-BM20-20,Kyebando over bridge,bridge,Kampala NorthernBypass,M20,M,0,0.3505,32.5795,54,1,2,0,7.3,Steel Truss,Road over river,Bituminous,2008,3,2024-05-02,Kampala,Central,Kampala,M,,7
BRG-BM20-21,Kalerwe B1 RHS,bridge,Kampala NorthernBypass,M20,M,0,0.3526,32.5723,44,1,2,0,7.3,Steel Truss,Road over river,Bituminous,2008,4,2023-05-08,Kampala,Central,Kampala,M,,7
BRG-BM20-22,Kalerwe B2 RHS,bridge,Kampala NorthernBypass,M20,M,0,0.3526,32.5715,80,1,2,0,7.3,Reinforced Concrete,Road over river,Bituminous,2008,3,2023-07-07,Kampala,Central,Kampala,M,,7
BRG-BM20-23,Kalerwe B2 LHS,bridge,Kampala NorthernBypass,M20,M,0,0.3526,32.5715,64,1,2,0,7.3,Steel Truss,Road over river,Bituminous,2008,5,2023-05-08,Kampala,Central,Kampala,M,,7
BRG-BM20-24,Kalerwe B1 LHS,bridge,Kampala NorthernBypass,M20,M,0,0.3526,32.5723,59,1,2,0,7.3,Reinforced Concrete,Road over river,Bituminous,2008,5,2022-09-10,Kampala,Central,Kampala,M,,7
BRG-BM20-25,Kalerwe Foot bridge,bridge,Kampala NorthernBypass,M20,M,0,0.3526,32.5691,47,1,2,0,7.3,Prestressed Concrete,Road over river,Bituminous,2008,4,2023-06-07,Kampala,Central,Kampala,M,,7
BRG-BM20-27,Bwayise B2 RHS,bridge,Kampala NorthernBypass,M20,M,0,0.3493,32.5626,38,1,2,0,7.3,Steel Girder,Road over river,Bituminous,2008,4,2023-05-08,Kampala,Central,Kampala,M,,7
BRG-BM20-28,Bwayise B1 LHS,bridge,Kampala NorthernBypass,M20,M,0,0.3493,32.5626,24,1,2,0,7.3,Masonry,Road over river,Bituminous,2008,3,2023-08-06,Kampala,Central,Kampala,M,,7
BRG-BM20-29,Bwayise B2 LHS,bridge,Kampala NorthernBypass,M20,M,0,0.3493,32.5626,55,1,2,0,7.3,Reinforced Concrete,Road over river,Bituminous,2008,5,2022-08-11,Kampala,Central,Kampala,M,,7
BRG-BM20-3,Namugongo OverBridge,bridge,Kampala NorthernBypass,M20,M,0,0.3636,32.6479,45,1,2,0,7.3,Reinforced Concrete,Road over river,Bituminous,2008,5,2024-01-03,Kampala,Central,Kampala,M,,7
BRG-BM20-30,Kawaala Bridge,bridge,Kampala NorthernBypass,M20,M,0,0.3471,32.5534,67,1,2,0,7.3,Prestressed Concrete,Road over river,Bituminous,2008,4,2023-10-05,Kampala,Central,Kampala,M,,7
BRG-BM20-31,Namungoona B2,bridge,Kampala NorthernBypass,M20,M,0,0.3452,32.5428,46,1,2,0,7.3,Reinforced Concrete,Road over river,Bituminous,2008,4,2024-05-02,Kampala,Central,Kampala,M,,7
BRG-BM20-32,Namungoona B22,bridge,Kampala NorthernBypass,M20,M,0,0.3452,32.5428,70,1,2,0,7.3,Timber,Road over river,Bituminous,2008,3,2024-04-02,Kampala,Central,Kampala,M,,7
BRG-BM20-33,Namungoona B1,bridge,Kampala NorthernBypass,M20,M,0,0.345,32.5422,30,1,2,0,7.3,Steel Girder,Road over river,Bituminous,2008,5,2023-01-08,Kampala,Central,Kampala,M,,7
BRG-BM20-34,Namungoona B12,bridge,Kampala NorthernBypass,M20,M,0,0.345,32.5422,75,1,2,0,7.3,Prestressed Concrete,Road over river,Bituminous,2008,5,2023-11-04,Kampala,Central,Kampala,M,,7
BRG-BM20-35,Sentema B2,bridge,Kampala NorthernBypass,M20,M,0,0.3322,32.5274,30,1,2,0,7.3,Timber,Road over river,Bituminous,2008,4,2023-01-08,Kampala,Central,Kampala,M,,7
BRG-BM20-36,Sentema B22,bridge,Kampala NorthernBypass,M20,M,0,0.3322,32.5274,35,1,2,0,7.3,Reinforced Concrete,Road over river,Bituminous,2008,5,2024-02-02,Kampala,Central,Kampala,M,,7
BRG-BM20-37,Sentema B1,bridge,Kampala NorthernBypass,M20,M,0,0.3316,32.527,58,1,2,0,7.3,Steel Truss,Road over river,Bituminous,2008,3,2024-01-03,Kampala,Central,Kampala,M,,7
BRG-BM20-38,Sentema B12,bridge,Kampala NorthernBypass,M20,M,0,0.3316,32.527,42,1,2,0,7.3,Prestressed Concrete,Road over river,Bituminous,2008,3,2023-11-04,Kampala,Central,Kampala,M,,7
BRG-BM20-4,Nalya-Kamuli Flyover Foot bridge,bridge,Kampala NorthernBypass,M20,M,0,0.3649,32.6419,36,1,2,0,7.3,Masonry,Road over river,Bituminous,2008,5,2022-08-11,Kampala,Central,Kampala,M,,7
BRG-BM20-5,Nalya B1 LHS,bridge,Kampala NorthernBypass,M20,M,0,0.3631,32.6336,19,1,2,0,7.3,Steel Composite,Road over river,Bituminous,2008,4,2024-03-03,Kampala,Central,Kampala,M,,7
BRG-BM20-6,Nalya B2 LHS,bridge,Kampala NorthernBypass,M20,M,0,0.3636,32.6364,58,1,2,0,7.3,Reinforced Concrete,Road over river,Bituminous,2008,4,2022-11-09,Kampala,Central,Kampala,M,,7
BRG-BM20-7,Nalya B1 RHS,bridge,Kampala NorthernBypass,M20,M,0,0.3636,32.6333,67,1,2,0,7.3,Prestressed Concrete,Road over river,Bituminous,2008,4,2023-09-05,Kampala,Central,Kampala,M,,7
BRG-BM20-8,Nalya B2 RHS,bridge,Kampala NorthernBypass,M20,M,0,0.363,32.6335,25,1,2,0,7.3,Prestressed Concrete,Road over river,Bituminous,2008,5,2023-05-08,Kampala,Central,Kampala,M,,7
BRG-BM20-9,Kiwatule under-pass,bridge,Kampala NorthernBypass,M20,M,0,0.3693,32.6277,50,1,2,0,7.3,Timber,Road over river,Bituminous,2008,4,2022-12-09,Kampala,Central,Kampala,M,,7
BRG-BM3-01,Busega,bridge,Kampala - Entebbe Expressway,M3_Link01,M,0,0.3146,32.5146,49,1,2,0,7.3,Reinforced Concrete,Road over river,Bituminous,2018,5,2024-01-03,Kampala,Central,Kampala,M,,6
BRG-BM3-02,Busega,bridge,Kampala - Entebbe Expressway,M3_Link01,M,0,0.3146,32.5146,48,1,2,0,7.3,Steel Truss,Road over river,Bituminous,2018,4,2023-05-08,Kampala,Central,Kampala,M,,6
BRG-BM3-03,KEE B1,bridge,Kampala - Entebbe Expressway,M3_Link01,M,0,0.3033,32.5126,53,1,2,0,7.3,Timber,Road over river,Bituminous,2018,5,2023-02-07,Kampala,Central,Kampala,M,,6
BRG-BM3-04,KEE B12,bridge,Kampala - Entebbe Expressway,M3_Link01,M,0,0.3033,32.5126,75,1,2,0,7.3,Prestressed Concrete,Road over river,Bituminous,2018,5,2022-10-10,Kampala,Central,Kampala,M,,6
BRG-BM3-05,KEE B2,bridge,Kampala - Entebbe Expressway,M3_Link01,M,0,0.2999,32.5126,17,1,2,0,7.3,Steel Composite,Road over river,Bituminous,2018,5,2023-11-04,Kampala,Central,Kampala,M,,6
BRG-BM3-06,KEE B22,bridge,Kampala - Entebbe Expressway,M3_Link01,M,0,0.2999,32.5126,42,1,2,0,7.3,Masonry,Road over river,Bituminous,2018,5,2022-07-12,Kampala,Central,Kampala,M,,6
BRG-BM3-07,KEE B3 overpass,bridge,Kampala - Entebbe Expressway,M3_Link01,M,0,0.2817,32.5131,67,1,2,0,7.3,Steel Girder,Road over river,Bituminous,2018,5,2023-05-08,Kampala,Central,Kampala,M,,6
BRG-BM3-08,KEE B4 overpass,bridge,Kampala - Entebbe Expressway,M3_Link01,M,0,0.2781,32.5157,76,1,2,0,7.3,Steel Girder,Road over river,Bituminous,2018,4,2022-12-09,Kampala,Central,Kampala,M,,6
BRG-BM3-09,KEE B5,bridge,Kampala - Entebbe Expressway,M3_Link01,M,0,0.271,32.52,31,1,2,0,7.3,Steel Girder,Road over river,Bituminous,2018,5,2023-08-06,Kampala,Central,Kampala,M,,6
BRG-BM3-10,KEE B6 underpass,bridge,Kampala - Entebbe Expressway,M3_Link01,M,0,0.2664,32.5208,21,1,2,0,7.3,Timber,Road over river,Bituminous,2018,5,2023-03-09,Kampala,Central,Kampala,M,,6
BRG-BMPP,Paraa Bridge,bridge,Park junction - Paraa,C626_Link01,C,0,2.2849,31.5648,32,1,2,0,7.3,Reinforced Concrete,Road over river,Bituminous,2022,5,2023-06-07,Masindi,Western,Masindi,C,,7
BRG-BMPP-507,Paraa Bridge 2,bridge,Paraa - Packwach,C626_Link02,C,0,2.2849,31.5648,75,1,2,0,7.3,Steel Truss,Road over river,Bituminous,2022,5,2022-06-12,Masindi,Western,Masindi,C,,7
BRG-BMPP-508,Sambia Bridge,bridge,Paraa - Packwach,C626_Link02,C,0,2.2849,31.5648,52,1,2,0,7.3,Masonry,Road over river,Bituminous,2022,5,2023-06-07,Masindi,Western,Masindi,C,,7
BRG-BMPP-509,B3(K-P5),bridge,Paraa - Packwach,C626_Link02,C,0,2.2849,31.5648,68,1,2,0,7.3,Steel Girder,Road over river,Bituminous,2022,5,2022-11-09,Masindi,Western,Masindi,C,,7
BRG-BMPP-510,B2(K-P5),bridge,Paraa - Packwach,C626_Link02,C,0,2.2849,31.5648,51,1,2,0,7.3,Masonry,Road over river,Bituminous,2022,5,2024-05-02,Masindi,Western,Masindi,C,,7
BRG-BMPP-511,B1(K-P5),bridge,Paraa - Packwach,C626_Link02,C,0,2.2849,31.5648,28,1,2,0,7.3,Prestressed Concrete,Road over river,Bituminous,2022,4,2023-07-07,Masindi,Western,Masindi,C,,7
BRG-B027,NABUYONGA BRIDGE,bridge,Mbale - Namunsi - Kumi,A007_Link04,A,55.68600082397461,1.08308,34.17915,73,3,2,2,7.3,Steel Truss,Road over river,Bituminous,,3,2024-04-02,Mbale,Eastern,Mbale,A,NABUYONGA RIVER,
BRG-B059,Ladot,bridge,Kanyago Bridge - Kumi,B305_Link03,B,0.22499999403953552,1.26756,33.872631,49,1,1,0,6.0,Prestressed Concrete,Road over river,Unsealed,1961,1,2023-12-04,Soroti,North Eastern,Soroti,B,Ladot,
BRG-B130,Surumu,bridge,Atiak - Moyo,B250_Link01,B,32.8650016784668,3.390005,31.79059,74,1,1,0,6.0,Steel Composite,Road over river,Unsealed,,4,2023-05-08,Moyo,Northern,Moyo,B,River Surumu,
BRG-B357,KAPISA BRIDGE,bridge,Kidoko - Kachonga,C838_Link02,C,12.300000190734863,0.94015,34.065819,71,1,1,0,6.0,Timber,Road over river,Unsealed,,4,2022-06-12,Tororo,Eastern,Tororo,C,,
BRG-B372,Methi,bridge,Buseta - Bugiri,C891_Link01,C,7.550000190734863,0.91622,34.35997,28,1,1,0,6.0,Timber,Road over river,Unsealed,,4,2024-04-02,Mbale,Eastern,Mbale,C,METHI-MERU,
BRG-B378,ATOOT,bridge,Ngora - Mukongoro,C930_Link02,C,23.06800079345703,1.3564,33.795029,42,1,1,0,6.0,Steel Composite,Road over river,Unsealed,,3,2023-05-08,Soroti,North Eastern,Soroti,C,ATOOT,
BRG-B379,OPOT,bridge,Amuria (Kuju) - Obalang,C941_Link01,C,33.05799865722656,2.14199,33.600731,19,1,1,0,6.0,Timber,Road over river,Unsealed,,4,2022-10-10,Soroti,North Eastern,Soroti,C,OPOT,
BRG-B387,KIIRA,bridge,Njeru - Jinja,A001_Link04,A,0.8980000019073486,0.444882,33.19046,70,6,2,5,7.3,Steel Composite,Road over river,Bituminous,,3,2023-04-08,Kampala,Central,Kampala,A,NILE,
BRG-B388,Sezibwa Bridge,bridge,Kalagi - Bukoloto - kayunga,B101_Link02,B,43.26599884033203,-0.67486,32.878578,18,1,1,0,6.0,Reinforced Concrete,Road over river,Bituminous,1953,1,2023-12-04,Kampala,Central,Kampala,B,SEZIBWA,
BRG-B389,NALUBAALE,bridge,Njeru - Jinja,A001_Link04,A,0.33799999952316284,0.443125,33.18602,51,1,2,15,7.3,Prestressed Concrete,Road over river,Bituminous,,2,2023-12-04,Kampala,Central,Kampala,A,NILE,
BRG-B393,Kiwatule flyover,bridge,Kampala NorthernBypass,M20,B,5.0,-0.36942,32.627769,39,1,4,0,14.6,Prestressed Concrete,Road over road,Bituminous,,4,2023-07-07,Kampala,Central,Kampala,B,,
BRG-B394,Najeera flyover,bridge,Kampala NorthernBypass,M20,B,0,-0.36932,32.624741,38,4,2,3,7.3,Timber,Road over road,Bituminous,,3,2024-04-02,Kampala,Central,Kampala,B,,
BRG-B395,Kisaasi flyover,bridge,Kampala NorthernBypass,M20,B,0,0.35879,32.598579,56,2,2,1,7.3,Masonry,Road over road,Bituminous,,3,2023-07-07,Kampala,Central,Kampala,B,,
BRG-B396,Kyebando flyover,bridge,Kampala NorthernBypass,M20,B,0,-0.35054,32.579498,31,2,2,1,7.3,Masonry,Road over road,Bituminous,,2,2023-08-06,Kampala,Central,Kampala,B,,
BRG-B397,Pedestrian bridge at Kalerwe,bridge,Kampala NorthernBypass,M20,B,0,-0.35261,32.569141,62,4,2,3,7.3,Steel Girder,Pedestrian over road,Bituminous,,2,2024-02-02,Kampala,Central,Kampala,B,,
BRG-B399,Bwaise flyover,bridge,Kampala NorthernBypass,M20,B,13.399999618530273,-0.34949,32.56337,51,2,4,1,14.6,Prestressed Concrete,Road over road,Bituminous,,4,2023-11-04,Kampala,Central,Kampala,B,,
BRG-B401,Bwaise flyover,bridge,Kampala NorthernBypass,M20,B,13.399999618530273,-0.3494,32.562641,15,2,4,1,14.6,Steel Truss,Road over road,Bituminous,,4,2023-01-08,Kampala,Central,Kampala,B,,
BRG-B402,Kawaala flyover,bridge,Kampala NorthernBypass,M20,B,0,-0.34715,32.553429,60,2,2,1,7.3,Timber,Road over road,Bituminous,,3,2023-11-04,Kampala,Central,Kampala,B,,
BRG-B408,KUFU,bridge,Munamba-Magale - Nangya,C870_Link03,C,10.001999855041504,0.92318,34.333229,52,1,1,0,6.0,Reinforced Concrete,Road over river,Unsealed,,3,2023-03-09,Tororo,Eastern,Tororo,C,KUFU,
BRG-B875,NANGIPA,bridge,Kidoko - Busiu - Isikhoye,C837_Link02,C,18.218000411987305,0.90304,34.12167,31,1,1,0,6.0,Prestressed Concrete,Road over river,Unsealed,,4,2023-09-05,Tororo,Eastern,Tororo,C,NANGIPA,
BRG-B876,LUKHA,bridge,Kidoko - Busiu - Isikhoye,C837_Link02,C,18.218000411987305,0.89378,34.119091,19,1,1,0,6.0,Timber,Road over river,Unsealed,,3,2023-11-04,Tororo,Eastern,Tororo,C,,
BRG-B879,LONENE,bridge,Matany - Lokopo - Turtuko,C968_Link01,C,29.82699966430664,2.48913,34.22353,65,2,1,1,6.0,Reinforced Concrete,Road over river,Unsealed,,3,2022-12-09,Moroto,North Eastern,Moroto,C,ANGOLORO,
CUL-C002,Culvert C002,culvert,Namayumba - Kitalya Prison - Kamuli,C187_Link01,C,15.7299995422363,0.40734,32.25177,2.5,1,1,0,6.0,Corrugated Steel,Stream,Unsealed,0,4,2023-01-08,Kampala,Central,Kampala,C,,3
CUL-C003,Culvert C003,culvert,Namayumba - Kitalya Prison - Kamuli,C187_Link01,C,15.75,0.40727,32.25164,2.5,1,1,0,6.0,Corrugated Steel,Stream,Unsealed,0,4,2022-08-11,Kampala,Central,Kampala,C,,7
CUL-C004,Culvert C004,culvert,Kayunga-Bale-Galiraya-Lake Kyoga,C300_Link01,C,10.1999998092651,0.78712,32.88607,1.6,1,1,0,6.0,Corrugated Steel,Stream,Unsealed,0,2,2024-02-02,Kampala,Central,Kampala,C,,7
